LAT;LONG;NAME
11.150044;3.662436;RIVERWASAE
11.131166;3.723919;RIVERWARAKA
11.132346;3.71188;RIVERPONIENA
8;2.166667;COLLINES
8;2.166667;DEPARTEMENTDUCOLLINES
6.366667;2.416667;DEPARTEMENTDULITTORAL
6.366667;2.416667;LITTORAL
10.85;916667;BARTIEKOUHOU
9.783333;2.083333;DANIO
10.366667;816667;GABORI
11.266667;2.983333;FAFA
9.166667;2.6;BOPOKOU
11.333333;2.916667;DEPARTEMENTDELALIBORI
11.333333;2.916667;ALIBORI
7.083333;1.833333;DEPARTEMENTDUKOUFFO
7.083333;1.833333;COUFFO
7.083333;1.833333;KOUFFO
7.466667;2.733333;ISSELOU
6.55;2.55;ONDJI
7.033333;1.966667;HAGBLADOU
10.9;2.8;SOUDOUKOUISSARE
10.333333;1.083333;KOUTOKABEGOU
7.25;2.066667;SAVAKON
6.666667;2.7;LAGBE
10.833333;1.483333;TIAWENDE
10.133333;1.616667;MOUENO
9.883333;2.9;NIAOU
6.7;2.466667;ADJOHOUN
6.7;2.466667;ADJOHON
6.7;2.466667;AJOHON
10.833333;2.533333;WOUROUNBONOU
10.6;1.1;NANTAKOUGOU
6.616667;1.75;HOUIN
11.2;2.933333;TATABOU
7.05;1.666667;ZODOUME
6.366667;2.433333;COTONOULAGOON
6.366667;2.433333;LAGUNEDECOTONOU
6.366667;2.433333;KOTONULAGOON
9.383333;2.416667;TAFIEROU
10.316667;1.65;SEPOUNGA
9.566667;2.566667;SIONA
9.9;1.916667;DAKA
9.483333;1.35;AGOUGOU
10.5;1.133333;KOUANDA
7.266667;1.966667;AGBEHE
9.916667;1.75;DOULIERO
10.433333;8;KUOTIE
7.35;1.883333;AGASOUSIGON
6.483333;2.1;SOSSAGBETO
6.483333;2.1;SOSABOGTO
9.533333;1.35;NDIAKADA
7.166667;1.916667;ADJAHAKPA
9.966667;2.5;BEKOUKOU
8.183333;1.9;MALOMI
10.65;2.966667;MONOPLABI
10.283333;1.583333;TARPOUNGA
8;1.833333;OTIO
10.6;1.016667;SIKELMA
9.833333;3.033333;KPANO
7.233333;1.916667;ZAKANME
7.233333;1.916667;ZAKAME
7.1;1.85;LANTAKOMABOU
9.783333;2.95;GOBIERA
6.4;2.2;ADJARRA
6.4;2.2;ADJARA
6.4;2.2;AJARA
8.383333;1.983333;ASSAVA
10.883333;1.866667;GORI
9.416667;1.75;BANINGLI
8.383333;1.783333;LOUGBA
8.383333;1.783333;LUBA
8.383333;1.783333;LOUBA
8.383333;1.783333;LOUGBAO
9.583333;1.45;AYARADE
7.983333;2.6;PALA
10.55;1.466667;TIATIBOURE
7.966667;1.666667;TOGBA
7.4;1.633333;TSOMANEHOUE
9.416667;2.55;GADARO
9.883333;3.166667;BAOUSSIGANDO
9.2;1.733333;OUROU
7.433333;1.85;AMOUSSOULOU
7.433333;1.85;MOUSOULOU
10.25;2.133333;GUINBEREROU
9.783333;2.066667;WOKA
9.583333;2.016667;NANOU
7.183333;2.35;DOVIDIZIGO
9.35;1.75;MBAYAKO
9.35;1.75;BAYAKOU
9;2.25;FORETCLASSEEDEWARIMARO
7.033333;1.75;TOHUINE
10.316667;.933333;OULOUONI
8.9;2.566667;OUKETEROU
10.2;1.433333;BOUSSASAMBOU
10.2;1.433333;KOUSSANZAMOU
7.333333;1.866667;GIGOGON
6.966667;1.65;GBEZE
6.616667;2.033333;ADJADJIBATA
6.616667;2.033333;ABATA
9.9;1.6;TANI
7.966667;1.716667;DATO
10.366667;1.933333;BERIA
6.333333;1.85;GBEHOUE
8.966667;2.633333;BERADOUROUGA
6.583333;2.683333;BOZOME
9.716667;1.733333;SERIVERI
8.9;2.366667;NENEASSATOU
11;2.9;PODEDAROU
6.35;1.883333;PAGBLE
9.95;1.8;TOUNAKOUKA
6.733333;1.766667;GANDJAZOUME
10.666667;1.483333;DANGMAYENI
9.133333;1.983333;AGUIMA
11.483333;2.433333;SAASSIBADOU
9.75;2.283333;BOURA
6.933333;1.683333;APLAHOUE
6.933333;1.683333;PARAHUE
6.933333;1.683333;PARAHOUE
9.016667;1.65;BAKANAKARI
10.3;1.066667;TAKOUNTA
8.233333;2.466667;DAHUI
8.566667;2.233333;DAJO
8.566667;2.233333;DADJO
7.433333;1.9;AGBOHOSI
9.333333;2.483333;WABIWAKOU
9.65;2.366667;GASSOUBOURA
10.4;.916667;KOUNTONRI
6.783333;2.666667;ILLACO
6.783333;2.666667;ITACO
9.45;2.633333;SABISSEKONPARAROU
10.25;2.866667;GANDOKOUSSOUKOU
10.333333;1.816667;KILIBO
9.8;3.116667;KOBOURE
9.533333;2.533333;BOTARO
10.85;1.066667;TETOUNGA
8.016667;1.916667;AZOKANGOUDO
10.133333;2.533333;GOUNOWE
10.783333;2.1;GOUNIENOU
8.15;1.966667;AGON
7.1;1.95;SOHOUEDOVOTE
9.916667;3.2;SEDOLE
9.7;1.733333;MINDIELRHA
9.4;2.616667;SUINROU
10.533333;1.183333;YOHONGOU
10.533333;1.183333;YAHOUNGOU
9.35;2.55;WORORA
9.35;2.55;OUORORA
9.35;2.55;WORORO
7;1.683333;DEKPO
7;1.683333;DEKPOAGNIBANDJIN
12.0766;2.817;DIAREKPA
12.0766;2.817;DYAREKOA
12.2097;2.9784;LOKETIRE
12.1372;2.9174;LONA
12.4077;2.8292;FANDARA
12.4074;2.825;MEKRU
12.4074;2.825;MEKROU
12.4074;2.825;MEKROU
12.4074;2.825;MEKROU
12.298;2.6222;GORGESDELAMEKROU
12.298;2.6222;GORGESDELAMEKROU
12.136;2.3978;MARIKIRE
12.292;2.923;MONSEY
12.292;2.923;MOSSEY
12.292;2.923;MOSSEI
12.292;2.923;MASI
12.3237;2.886;MAYZEGOUKOARA
12.3237;2.886;MAYZEGOUKWARA
12.2039;2.9659;LOUMBOULOUMBOU
12.2429;2.9013;LOUMBOULOUMBOU
12.0057;2.4559;MALIGOROU
12.1105;2.9453;BOMANI
12.3614;2.7375;BOUROWA
12.1226;2.9881;KOTOWE
12.2422;2.8779;BONVALOU
12.2422;2.8779;BONWALOU
12.2589;2.8546;BORNYANI
12.2589;2.8546;BORGNAMI
12.3049;2.8219;KOKODYANGOU
12.1225;2.9609;BEYDOU
12.3501;2.7542;RAPIDESDUBAROU
12.3501;2.7542;RAPIDESDUBAROU
12.3447;2.8567;KASAGOROU
12.3447;2.8567;KASSAGOROU
12.094076;2.723577;SANKANI
12.1199;2.9318;BANKALEYATA
12.350775;2.852111;PEKINGA
12.3168;2.9031;BANDA
12.3113;2.8907;TONDIBANDA
12.0858;2.8626;AOUYYARA
12.1787;2.9611;PANPANOU
12.1787;2.9611;PAMPANOU
12.3888;2.8273;GANBEGOUROU
12.3888;2.8273;GAMBEGOROU
12.274;2.9415;GOMBETIKOARA
12.274;2.9415;GOMBETIKWARA
12.0565;2.4241;GORONGOGOROU
10.272137;3.249692;BAGALIBEROUKPANE
10.312635;3.253159;BAGALIPETE
10.874704;3.402574;OUARA
10.810749;3.608181;GUINDANE
10.978679;3.696253;GOUSSINA
10.813503;3.740099;NEANA
10.812826;3.639397;VOUPE
10.770805;3.58296;SAIBONAGUENE
10.864309;3.425963;SANA
10.717262;3.034891;BABOREOUENANA
10.696571;3.229163;SATA
10.584588;3.807874;ZATENA
10.584588;3.807874;RIVERZATENA
10.917394;3.203027;BULI
10.917394;3.203027;BOULY
10.917394;3.203027;BOULI
10.916872;3.204029;TASSINE
10.916872;3.204029;TASSENE
10.916872;3.204029;TANSINET
10.49377;3.791763;KIKIMBA
10.502145;3.727391;ZA
10.516988;3.543316;ZANA
10.460917;3.501934;SOFA
10.536968;3.291473;KONGA
10.371915;3.353861;AOUASSENA
10.190599;3.308698;BONBODIE
10.190599;3.308698;BOMBODIE
10.21555;3.378816;OUARA
10.599405;3.811153;BIONOMA
10.592624;3.810426;NEGANZI
10.592624;3.810426;NAGANZI
10.592624;3.810426;NEGANZI
10.592624;3.810426;NEGANSI
10.985268;3.153435;BENSEKOU
10.985268;3.153435;BINSAKOU
10.985268;3.153435;BENSAKOU
10.599374;3.522423;BANGA
10.815288;3.741527;GANGANA
10.997719;3.621184;OUINTE
10.700005;3.778758;ZOYO
10.3679;3.097535;BAGOUROULE
10.129558;3.214818;BAHI
10.347073;3.392065;BAHIKASSARI
10.78549;3.081561;BAKANA
10.241114;3.250925;AGANDOBAKA
10.241114;3.250925;GANDOBAKA
10.320211;3.222008;ALAFIAROU
10.807165;3.436877;ALFABE
10.245917;3.24245;ANGARADEBOU
10.069749;3.282871;ATIKOU
10.348563;3.30732;AWASSENA
10.348563;3.30732;AOUASSENA
10.12509;3.237802;AYERE
10.683179;3.656549;BADOUNA
10.54923;3.602311;BAENA
10.618054;3.563123;BAFI
10.932255;3.316667;BAGA
10.276246;3.233102;BAGANIA
10.276246;3.233102;BAGALI
10.276246;3.233102;BAGARIA
10.749692;3.765512;PASSOURA
10.443375;3.091988;PATE
10.171213;3.111968;PATEROUGANDO
10.171213;3.111968;PATEROUGANDA
10.643582;3.472358;BENGA
10.627763;3.664366;WEHIMI
10.627763;3.664366;OUEHIMI
10.367361;3.198228;BAKONBEROU
10.367361;3.198228;BAKOMBEROU
10.021392;3.085567;BANI
10.541449;3.73341;BANINZI
10.541449;3.73341;BANENZI
10.270442;3.343117;BANKOUBOU
10.028788;3.584874;BANPASSA
10.028788;3.584874;BAMPASSA
10.515203;3.548845;BAONA
10.038726;3.321444;BARAGOUROUSSI
10.833256;3.307704;BARANA
10.833256;3.307704;GBARANA
10.247612;3.145686;BARIKEKE
10.468978;3.098151;BASSATIN
10.229173;3.151002;BASSI
10.499085;3.688134;BASSO
10.732409;3.746071;BEDIA
10.728172;3.771444;BEDIKA
10.728172;3.771444;BEDIKO
10.614664;3.556395;BEDOA
10.232024;3.234104;BEKAWARA
10.232024;3.234104;BEKAOUARA
10.551541;3.616205;BEKOUNA
10.481561;3.748536;PENENA
10.388669;3.064268;PEPERA
10.545301;3.637956;PESSINA
10.278788;3.264741;PESSOUROU
10.278788;3.264741;PESSAUROU
10.955547;3.639111;PIAMI
10.96451;3.743144;PINKERINKO
10.984181;3.570288;PINZI
10.813971;3.43395;POUELA
10.813971;3.43395;POUEYLA
10.501464;3.709965;POWI
10.041988;3.383025;SAKABANSI
9.998614;3.394222;SAKOBANA
9.998614;3.394222;SAKABANA
10.872599;3.400385;SANA
10.749769;3.058886;SANE
10.270673;3.292219;SANEGADO
10.717438;3.588572;SAONZI
10.717438;3.588572;SALONZI
10.751926;3.592527;SAOUBEZE
10.914167;3.76812;BELE
10.97432;3.504546;BATEFE
10.321136;3.329943;BAGASSI
10.321136;3.329943;BAGAZI
10.973857;3.498614;BEKOURONA
10.973857;3.498614;GBENKOUROUNA
10.966898;3.569287;BELA
10.756472;3.689496;BENENA
10.756472;3.689496;GBENENA
10.850848;3.104006;BENOA
10.609271;3.692681;BEOSSA
10.358937;3.257165;BEOUROUKPAROU
10.744916;3.556241;BEPOUNA
10.387416;3.497997;BEPOUO
10.178634;3.241141;BEROUBASSI
10.274397;3.154854;BEROUBASSI
10.384526;3.468243;GBESSASSI
10.384526;3.468243;BESSASSI
10.356729;3.504777;BESSASSIGANDO
10.356729;3.504777;BESSASIGANDO
10.885876;3.554237;BESSE
10.885876;3.554237;GBESSE
10.672779;3.32378;BESSOIN
10.672779;3.32378;GBESSOUIN
10.314664;3.530868;BEWANA
10.314664;3.530868;BEOUANA
10.709734;3.722676;BIANTIN
10.002003;3.454623;BIDA
10.908089;3.5915;BINSEOUL
10.456258;3.093884;WENA
10.456258;3.093884;OUENA
10.94592;3.458776;WARANDJI
10.94592;3.458776;OUARENZI
10.94592;3.458776;OUARANDJI
10.94592;3.458776;WARANJI
10.72848;3.524141;SAOUNA
10.301387;3.482255;SASSI
10.9264;3.239496;SASSOUANA
10.52586;3.549692;SEBANA
10.927932;3.694443;SEGBANA
10.460192;3.721879;SEKAI
10.620619;3.821673;SELIKITI
10.79299;3.466821;SEREBANI
10.828865;3.471059;SEREKIBE
10.343837;3.038649;SESSAMA
10.692373;3.501849;SIKO
10.653852;3.394607;SIKO
10.343914;3.387185;SINA
10.316205;3.3396;SODEMI
10.800462;3.085721;SOINGUINA
10.663817;3.376169;SOISSARE
10.602928;3.257935;SOKASSINA
10.225277;3.304259;ARODORO
10.477763;3.756055;RIVERANIA
10.477763;3.756055;ANIA
10.487208;3.75928;RIVERJIATIN
10.487208;3.75928;JIATIN
10.169672;3.277555;BIOKAO
10.281698;3.127925;BLEMI
10.268146;3.114903;BLEMI
10.250462;3.123601;BLEMIGANDO
10.368747;3.217669;BOA
10.368747;3.217669;BUA
10.368747;3.217669;BOUA
10.794916;3.534181;BOBENA
10.794916;3.534181;BOBENE
10.137648;3.198614;BOLOUNDE
10.355496;3.028095;BONADAROU
10.068901;3.291911;BONKOU
10.570904;3.56921;BONSANA
10.699538;3.629481;BOUALANGOGOLDAWI
10.699538;3.629481;BOULALANGOGOLDAOUI
10.215358;3.131638;BUKA
10.215358;3.131638;BOUKA
10.215358;3.131638;BOUCA
10.147997;3.221136;BOUKABEROU
10.196842;3.169364;BOUKAGANDO
10.222676;3.113046;BOUKAKEKEBE
10.26243;3.075629;BOUKAKRIKOUBE
10.000771;3.279789;BOUKANIERE
10.000771;3.279789;BOUKAYERE
10.749615;3.572908;JOUGOI
10.571056;3.806791;SONA
10.571056;3.806791;RIVERSONA
10.222856;3.006883;SOLANPOU
10.222856;3.006883;SOLAMPOU
10.973241;3.303082;SONA
10.665435;3.33549;SONONA
10.42509;3.482794;SONPOUANA
10.42509;3.482794;SOMPOUANA
10.665743;3.344068;SORA
10.665743;3.344068;SBRA
10.441911;3.312276;SOROU
10.815049;3.350694;SOSSA
10.852928;3.194222;SOU
10.648999;3.470827;SOUAMOU
10.827863;3.186723;SOUARA
10.997817;3.531921;SOUATINI
10.125552;3.308809;TEGO
10.040267;3.244376;TESSINTOBRA
10.81166;3.083487;TOANA
10.904392;3.000462;TONA
9.998459;3.160042;TONE
10.66112;3.43603;TORIN
10.676091;3.805162;BOULANKI
10.945994;3.408012;BOURALANGOU
10.250308;3.169672;BOURIEU
10.213971;3.204854;CHABEGOGUEKPAROU
10.304546;3.488957;CHARISSEKPAROU
10.304546;3.488957;CHARRISEKPAROU
10.438957;3.201772;DADA
10.311737;3.450462;DANGANZI
10.311737;3.450462;DAGASSI
10.311737;3.450462;DAGANSI
10.79661;3.550617;DAKALA
10.980637;3.706626;DAKOU
10.349923;3.30547;DANGNAN
10.342913;3.160966;DANGOUROU
10.365126;3.141141;DANKANA
10.365126;3.141141;DONKANA
10.346071;3.305393;DANKOU
10.152928;3.376246;DEDEBOURA
10.159895;3.25701;DERESSI
10.159895;3.25701;DERASSI
10.044839;3.218439;DIADAGAMARI
10.82717;3.543837;DIAPIO
10.890568;3.707679;VELA
10.890568;3.707679;VELELA
10.544948;3.240071;FORETCLASSEEDESTROISRIVIERES
10.614895;3.183564;TENA
10.634797;3.174551;KAIMIPLA
10.133641;3.243529;KAKATENE
10.133641;3.243529;KAKATANE
10.132486;3.157654;KALE
10.291657;3.380999;KALELE
10.291657;3.380999;KALALE
10.032024;3.211891;KALI
10.032024;3.211891;KALE
10.440293;3.54792;KALIPANA
10.673703;3.040036;KAN
10.673703;3.040036;KANI
10.598614;3.159117;KANA
10.801002;3.203621;KANA
10.921136;3.599307;KANA
10.870519;3.71451;KANKARI
10.86166;3.553544;KANKUEYE
10.86166;3.553544;KANKOUEYE
10.86166;3.553544;KANKOUE
10.86166;3.553544;KANKOUEY
10.86166;3.553544;BOBENA
10.929558;3.549846;KAMMBOURA
10.929558;3.549846;KANMBOURA
10.929558;3.549846;KAMBOURA
10.957808;3.644916;KANSOU
10.66962;3.812892;KAPANA
10.669338;3.351438;KARAHI
10.809091;3.127786;KARIKABARA
10.809091;3.127786;KARIKABANA
10.809091;3.127786;KARIBABARA
10.809091;3.127786;KARIKABARE
10.162669;3.17503;POULAGOYEKIRE
10.455778;3.383102;TOUASSINA
10.859194;3.676091;TOUNBOU
10.859194;3.676091;TOUMBOU
10.97925;3.278608;VIONNA
10.653929;3.405393;WAFINA
10.653929;3.405393;OUAFINA
10.822985;3.626014;WAMI
10.822985;3.626014;OUAMI
10.194942;3.375167;WAMOTI
10.194942;3.375167;OUAMOTI
10.771341;3.233231;WANA
10.771341;3.233231;OUANA
10.852697;3.19661;WANA
10.852697;3.19661;OUANA
10.952697;3.244145;WARANA
10.952697;3.244145;OUARANA
10.427016;3.258193;WEABARA
10.427016;3.258193;OUEABARA
10.549152;3.291515;WENA
10.549152;3.291515;OUENA
10.342518;3.191515;WENAGOUROU
10.342518;3.191515;OUENAGOUROU
10.40324;3.286264;YAKA
10.12593;3.503074;YAKONA
10.20162;3.322761;YAMOUSSAKPAROU
10.568364;3.33611;YAPOUANA
10.515279;3.364122;YAPOUNO
10.395372;3.307097;YENBAKO
10.395372;3.307097;YEMBAKO
10.977453;3.639369;DINA
10.300848;3.214125;DJEGA
10.712327;3.20208;DOGUERE
10.036723;3.428403;DONBARAKOU
10.036723;3.428403;DOMBARAKOU
10.057268;3.360247;DONKARAOUYE
10.057268;3.360247;DONKARAOUY
10.718266;3.132068;DOUGOULAYE
10.777786;3.626785;DOUTEMI
10.355188;3.14435;DUNCASSA
10.355188;3.14435;DUNKASSA
10.416744;3.085182;FETE
10.681149;3.65449;FORA
10.812738;3.555701;FOWA
10.795455;3.550925;FOWEYE
10.795455;3.550925;FOWEY
10.266874;3.112684;GANBOU
10.266874;3.112684;GAMBOU
10.284258;3.185413;GANDO
10.207781;3.228095;GANDOMATCHORE
10.432024;3.786289;GANDOTIAKA
10.432024;3.786289;GANUCHAKA
10.191141;3.263483;GANOUERERE
10.276189;3.497094;SOUATINE
10.276189;3.497094;SOUATIN
10.390869;3.073509;SOLINA
10.85181;3.429117;SOKOTINJI
10.85181;3.429117;SOKOTINDJI
10.85181;3.429117;SOKOTENDJI
10.85181;3.429117;SOCOTINDJI
10.211452;3.103266;KASSAOGO
10.940748;3.000385;KASSOBENI
10.728326;3.564895;KATIN
10.752466;3.317643;KEFOUNA
10.009657;3.579044;KENA
10.009657;3.579044;GONA
10.43549;3.545455;KERINSOA
10.926631;3.491268;KEYA
10.145686;3.157037;KIBI
10.249847;3.302697;KIDANOUKPEROU
10.249847;3.302697;KIDAROUPEROU
10.30077;3.318362;KIDARUPERU
10.30077;3.318362;KIDAROUPEROU
10.915065;3.673771;KIENA
10.061506;3.275552;KIETAREKOKA
10.70678;3.191141;KIKONAN
10.893683;3.694762;KINDASSALE
10.69168;3.044222;KINKANSOUARA
10.69168;3.044222;KINKAOSOUARA
10.770301;3.710061;KINSON
10.023934;3.010504;KINTA
10.875398;3.64602;KIZANA
10.336261;3.262529;PEONGA
10.164888;3.390406;OTOLODIEU
10.643991;3.670365;NINKASSA
10.643991;3.670365;NINKOSSO
10.38809;3.217258;YENEKASSE
10.285416;3.38395;YOUGOUROKPAROU
10.767288;3.652852;ZIBO
10.56983;3.131251;ZINBA
10.56983;3.131251;ZIMBA
10.805785;3.672607;ZONA
10.535802;3.112579;ZONA
10.662045;3.640498;GANPASSA
10.662045;3.640498;GAMPASSA
10.02301;3.057731;GANROU
10.674115;3.810812;GAO
10.829712;3.69507;GARAKOUNZI
10.34892;3.199758;GARI
10.40678;3.557191;GAWINA
10.40678;3.557191;GAOUINO
10.397073;3.572753;GAWINZI
10.397073;3.572753;GAOUENZI
10.445147;3.313355;GBAKENA
10.492065;3.393708;GBANANA
10.492065;3.393708;GBONENA
10.339831;3.291295;GBASSI
10.37586;3.269672;GBEDAKPAROU
10.775398;3.078172;GBEGUA
10.140498;3.489523;GBEHI
10.517515;3.304777;GBEHI
10.523857;3.127016;GBEHI
10.921521;3.471906;GBEKE
10.404315;3.245994;GBEMI
10.038341;3.182948;SOBABINKBEROU
10.038341;3.182948;SOBABINGBEROU
10.702102;3.792052;SOATIN
10.165104;3.259352;SISSONA
10.949461;3.241037;KOFENA
10.81659;3.676246;KONI
10.81659;3.676246;KOUI
10.839034;3.710119;KONOYE
10.682871;3.287185;KORO
10.873164;3.673447;KOROHUI
10.483179;3.307088;KOUANA
10.802466;3.726169;KOUIN
10.687076;3.800443;KIURE
10.687076;3.800443;KUDE
10.687076;3.800443;KOUTE
10.687076;3.800443;KIOURE
10.687076;3.800443;KOUTE
10.719364;3.214895;KOUYA
10.498536;3.109811;KPA
10.618824;3.249615;KPAKA
10.762815;3.068824;KPAKA
10.268285;3.332898;KPEROUALOU
10.777862;3.743657;KPOUA
10.314356;3.113817;KRIKOUBE
10.480252;3.11374;LAFIAROU
10.890755;3.14227;GBENA
10.421213;3.016051;GBESSAROUPEROU
10.984104;3.282101;GBESSE
10.984104;3.282101;GBASSE
10.984104;3.282101;BESSE
10.984104;3.282101;GBASSA
10.931767;3.153493;GBESSE
10.748459;3.054854;GBESSEDAROU
10.99091;3.25678;GBINA
10.585413;3.534104;GBINNENA
10.585413;3.534104;GBENENA
10.980098;3.535413;GINDOGA
10.980098;3.535413;GUINDOGA
10.726631;3.602234;GOBIJOKPAROU
10.112815;3.348691;GONA
10.905162;3.20339;GONANA
10.067361;3.277478;GOROBANE
10.476297;3.549845;GOUANA
10.539882;3.602697;GOUANA
10.579404;3.726246;GOUANA
10.302466;3.165974;GOUNAKPAROU
10.036489;3.205452;SANKOU
10.957261;3.749791;SANINBA
10.957261;3.749791;SANIMBA
10.312738;3.020057;LASSE
10.789836;3.583703;LIBANTE
10.787505;3.590662;LIBANTEGANDO
10.920982;3.485721;LIBOUSSOU
10.323447;3.459784;LU
10.323447;3.459784;LOU
10.870982;3.680175;LOUANZI
10.339985;3.517284;LOUGANDO
10.84245;3.606009;LOUGOUNZI
10.663971;3.200848;LOUNA
10.445917;3.768516;LOUZI
10.455932;3.766359;LOUZI
10.136338;3.182948;MADIANA
10.824525;3.325398;MAGA
10.040601;3.241757;MAGANIKOKA
10.618054;3.579404;MANAGBASSO
10.218054;3.286107;MARIGUIRA
10.218054;3.286107;MARIGUINTA
10.232563;3.269903;MATCHORE
10.232563;3.269903;MATIORE
10.152851;3.279866;MATIOUKPAROU
10.246456;3.03264;MINEKOUDAROU
10.905547;3.766205;MOINA
10.922908;3.737416;GOUSSINSARE
10.922908;3.737416;GOUSSISSARE
10.494376;3.736877;GOUZANA
10.391808;3.167515;GROBANI
10.403082;3.148691;GUEMA
10.159348;3.200385;GUENEBE
10.681407;3.829096;GUENESSOA
10.93133;3.316744;GUEZI
10.712661;3.519441;GUINA
10.187648;3.275937;GUIRI
10.969595;3.635876;GUIVANBARA
10.969595;3.635876;GUIFAMBARA
10.786954;3.487493;IFOU
10.278403;3.389908;ILONI
10.781998;3.213996;IMINA
10.909682;3.16433;INIENA
10.615281;3.578557;IPOUNA
10.130945;3.266436;ISSI
10.597073;3.507935;ITIN
10.139496;3.480021;JANKO
10.028172;3.495147;JASSI
10.734514;3.72489;SASSANA
10.66921;3.210976;SANA
10.66921;3.210976;NASSI
10.640264;3.316099;MOROU
10.640264;3.316099;MOUROU
10.640264;3.316099;MURU
10.640264;3.316099;MONROU
10.640264;3.316099;MONRAU
10.717006;3.808994;MOUNPOU
10.05208;3.037725;MOUSSOURI
10.285953;3.348614;MONTNAFA
10.148305;3.25208;NAROUBE
10.364818;3.376554;NASSIBOURGOU
10.322643;3.407204;NASSIKONSI
10.322643;3.407204;NASSIKOUSSI
10.325912;3.40619;NASSIKOU
10.608424;3.167515;NEGUE
10.74245;3.642913;NIAMMBARA
10.74245;3.642913;NIAMBARA
10.447381;3.78002;NIASSA
10.433718;3.777941;NIASSALE
10.315512;3.501772;NIASSI
10.326708;3.250335;NIENESSANI
10.392604;3.511506;NIGUO
10.366391;3.160965;MOULARE
10.164654;3.055394;DABOUANA
10.843298;3.090421;NIONE
10.444993;3.055008;NOGOU
10.235336;3.31451;OROKEKEKPAROU
10.613586;3.689111;OUBOUREKO
10.622368;3.678634;PANDA
10.320596;3.026477;PARAKOU
10.918285;3.772291;PARENA
10.863355;3.701079;PASSAOU
10.674088;3.5;PASSINA
10.727709;3.533487;PASSOUANA
10.633333;1.783333;LAMBUTI
10.633333;1.783333;LAMBOUTI
10.633333;1.783333;LAMBOUNTI
10.633333;1.783333;DAMMBOUTI
10.833333;1.1;TALE
10.416667;2.75;TAKOU
9.916667;2.783333;TIMMBOIROU
10.35;2.15;DOUGOUNDERO
9.316667;2.55;KABOROKPO
11.133333;2.766667;KABAYEDOU
10.766667;1.1;OUTOUOLI
9.4;2.583333;OUROUNGOUROU
10.816667;2.683333;DONIARO
10.3;.8;NIEMPIRE
7.066667;1.966667;AGBANGNIZOUN
7.066667;1.966667;AGBAGNIZON
8.316667;2.683333;AGBAGBA
9.166667;2.183333;TOUNKPEROU
9.533333;3.066667;MAYARO
7.383333;1.8;ASSANGANLINGON
10.45;2.966667;BATIN
9.983333;1.416667;DONFOOURHATARHOU
7.316667;1.766667;KPIN
9.3;2.183333;KPESSOU
6.8;1.733333;DOGBOHAHOME
6.566667;2.016667;DODOME
9.566667;1.5;KPELOU
9.7;1.483333;TIAKENARE
10.616667;1.416667;TIADANFAGA
10.583333;1.016667;BANFILI
11.416667;2.316667;SAHO
9.4;2.066667;BAKOU
8.883333;2.6;TCHAOUROU
8.883333;2.6;CHAURU
9.483333;1.45;MAKPALADO
9.483333;1.45;AKPALODO
7.116667;1.916667;AKONHOUM
10.3;2.583333;FORETCLASSEEDEWENOUBENOU
10.916667;2.583333;NAHO
11.2;2.416667;NAFIAROU
11.2;2.416667;NAFAROU
9.133333;1.833333;KEMETOU
10.816667;.983333;KOUSSEGA
8.666667;2.683333;OKORIKO
8.4;2.416667;OKELE
10.366667;1.55;WATIPONGA
10.366667;1.55;OUYATPOUNGA
9.283333;2.416667;WASSAMO
11.166667;2.283333;GBANGBANGA
9.766667;2.5;GAYAKASSO
9.9;3.15;MOUNIAROU
9.116667;2.1;KPAME
9.716667;1.516667;MASSABORA
6.916667;2.016667;TCHITO
11.4;2.383333;POTOTOUMARA
9.3;2.666667;BAKAGA
7.283333;1.8;HONVE
9.55;1.516667;MIAMI
9.55;1.516667;MAMMI
11.383333;2.55;POGUIROU
11.533333;2.683333;POBINSON
7.85;2.233333;HENHIME
7.466667;1.816667;HANAGBO
9.566667;1.466667;LOLOUNGBORHO
11.333333;2.966667;GABASSON
7.333333;1.883333;AOUIANGON
9.533333;1.366667;ANIRA
9.516667;1.616667;YARLIRO
11.183333;2.866667;GONA
11.416667;2.583333;NIANDOKO
9.033333;2.5;ADOHOUKPAROU
8.933333;2.216667;TOUI
8.933333;2.216667;TOUE
10.65;3;TOUANA
8.283333;1.9;AMOADIOU
10.816667;1.533333;YANAFAGA
10.3;1.033333;YAKOUENNTCHIE
11;1.4;KOOBOANGKIANGA
10.366667;2.8;BOUIPIKOUROU
9.433333;1.616667;BOUGOU
9.433333;1.616667;PIOUGOU
7.983333;1.75;KOLOBI
9.916667;1.666667;SAYANANGA
6.566667;2.583333;MISSERETE
7.116667;1.983333;MIGNONHITO
7.933333;1.966667;OUESSE
10.8;1.983333;KOUROU
9.733333;2.5;SONDARI
10.2;2.866667;BUARI
10.2;2.866667;BOUARI
10.2;2.866667;BOUANRI
7.416667;1.75;BOSOUAKIDIGBA
9.566667;2.983333;MOUNDOURO
8.833333;2.416667;ODODTOKOU
10.633333;1.283333;YETAMOUTE
6.8;2.133333;COLI
9.566667;1.566667;KOTODIERA
9.55;1.866667;SETMSIKPEMRHOU
9.55;1.866667;SETIMSI
9.883333;1.483333;SEROUA
9.583333;1.766667;BIGNIGOLROU
9.583333;1.766667;BINYIKOULRHOU
9.616667;3.083333;BINI
11.4;2.816667;FINFEGOU
6.583333;2.683333;BOZOUME
6.583333;2.683333;BOZUME
10.766667;.783333;BOUTONBOANGA
6.666667;2.05;GLOTOME
10.45;1.25;NEKUEMA
7.816667;1.85;ADJAFA
10.133333;1.633333;TOMHE
9.516667;1.666667;FANGOFOLO
5.5;4;BIGHTOFBENIN
6.4;1.95;GUEZIN
6.4;1.95;GBEZIN
7.133333;1.716667;RHOMTE
9.266667;2.383333;POURARI
10.3;2.883333;TASSEROU
6.766667;1.666667;DEVE
9.716667;2.766667;DEREGOUROU
9.433333;1.5;MADIATOM
9.833333;2.95;PEREKOU
10.466667;1.233333;PENNSIBOU
6.566667;1.766667;AZONLIHOUE
7.583333;1.833333;AZELELEDJI
10.566667;2.766667;KARAKOUDASSI
10.8;.816667;LATIELE
10.6;1.333333;TANFERE
10.833333;1.55;TANDAVO
10.016667;1.45;KANKIAKOU
9.95;2.983333;GUEMA
10.2;1.2;KOUMANTIGOU
10.633333;.933333;KOULOUMOUBOUANGA
6.866667;1.666667;SOHOUHOUSAHOUE
7.316667;1.833333;SOBOSIGON
9.016667;1.75;BONO
9.266667;2.733333;KOBOUARI
9.7;2.383333;DAROUSSOMENI
9.533333;1.416667;KOUKOKOLO
9.533333;1.416667;KOKOKOLO
8.533333;1.7;GOULE
10.883333;.916667;SIREBOINE
10.633333;1.683333;NITROUMA
10.966667;.933333;TANPASSEGA
10.716667;1.333333;TANMBOUFAGA
9.816667;1.45;KARLROUMDORHA
7.116667;1.633333;ESUIME
8.1;2.35;LIFO
11.183333;2.95;PEDE
7.333333;1.983333;AVOGBE
8.316667;2.55;EGBESSIA
6.383333;2.616667;SEME
6.383333;2.616667;PODJI
6.383333;2.616667;SEMEPODJI
6.7;2.233333;OUALI
10.616667;1.35;BOUNTA
10.783333;1.266667;BOULPOUFAAGA
10.533333;3.633333;KONGA
10.716667;1.033333;SAKANNOU
10.716667;1.033333;SEKANON
9;2.6;SEGOUROU
10.416667;1.066667;BENNTANKO
7.466667;1.716667;AGOTOHOUI
9.033333;2.05;WANOU
9.266667;2.416667;MONMBOURI
9.683333;1.983333;MOMONGOU
7.45;1.983333;GOUSSOUGON
9.283333;2.866667;GOURI
11.083333;3.016667;IPOUNA
10.683333;2.866667;SALOU
9.366667;1.85;SAKOUNANEUGBAWAPEROUN
9.366667;1.85;SAKOUOHAII
11.166667;2.2;TEMERE
6.666667;1.816667;TENOUKANME
6.666667;1.816667;TEHOUKOM
8.4;1.716667;DJERO
8.816667;2.6;PAPANE
11.283333;2.966667;PANGOU
8.2;2.633333;ATESSE
8.033333;2.716667;ATCHIKPAKA
9.983333;1.6;GOUMOURHOUSINNGREU
11.1;2.733333;GOUMBEKOGOU
10.5;1.333333;NOUANOUARGA
10.183333;1.9;SINMPEREROU
9.8;2.916667;BOLOUNEZERA
7.1;2.016667;KINTA
9.7;3.016667;KOUBOURE
9.666667;2.366667;KOUBERE
9.15;2.166667;SINAKPEROU
10.116667;1.7;BEHOKOU
6.466667;2.416667;SOZUCO
6.466667;2.416667;SOZOUNKO
6.466667;2.416667;SOZOUKO
6.466667;2.416667;SOZOUCO
10.466667;1.583333;SOUROUKOU
7.566667;1.966667;ALETINKPOTAHOUI
9.4;2.633333;WORE
10.633333;3.633333;GBINTE
9.2;2.433333;GBETEBOU
10.583333;1.1;NAROKOU
7.1;1.65;ABOLOUME
8.383333;1.816667;ABAKO
10.45;2.916667;TOKENA
9.7;1.65;TIOUTIOULRHO
6.433333;1.833333;OUMAKO
6.433333;1.833333;OUAMAKO
8.883333;2.283333;OUKONTAKODA
8.433333;1.883333;AKPASSI
9.566667;1.85;VANHOUI
10.2;2.666667;GANDO
10.766667;1.466667;SANTOILEBOYA
11.116667;2.75;GOUADOUMENOU
9.35;1.583333;OYOLO
9.35;1.583333;PELIFRIGUENIOU
10.6;1.566667;OUTOUNTEYA
10.6;1.566667;OUROUTOUNTAYA
9.083333;1.7;OUROUTOU
10.65;1.483333;TIKOU
9.666667;1.65;TIEUELRA
9.733333;1.866667;TIEMBARANGA
10.866667;1.116667;TIEGA
10.783333;.95;TIAZAGA
9.616667;1.45;DOOUNGLE
11.016667;2.9;KEREBOUYA
9.316667;1.533333;KEMETOUPENEZOULOU
10.1;2.716667;KEKPAKO
10.25;1.083333;KOUTANGOU
9.75;1.716667;KOUSSOUNTE
7.533333;1.85;HAMADOU
8.483333;2.416667;OKPASSA
10.833333;2.883333;OKOUNIEME
10.6;.783333;OKOLOBARA
7.216667;1.666667;OKI
8.016667;2.216667;OGUENI
8.216667;2.183333;AKLANPA
8.216667;2.183333;AKLAMPA
8.433333;2.716667;GBOUGBOU
8.45;2.466667;GBOBOLO
11.333333;2.5;GBESSERA
6.383333;1.983333;NAZOUME
6.383333;1.983333;NAZOUMERSTATION
9.566667;2.35;NATA
9.883333;1.55;NARLIRHA
10.333333;.966667;NANTIANGO
10.933333;1.116667;NANPOREYADE
7.983333;1.8;ADANHOUE
9.266667;2.65;ADAKPARO
6.55;2.583333;ABOGO
6.55;2.583333;ABOGA
9.716667;2.166667;FABA
6.633333;1.9;LOBOGO
6.616667;2.083333;LISSEGAZOUN
9.666667;1.466667;LIMEDA
7.416667;1.983333;LICHI
10.333333;1.433333;TANKASSIKA
10.2;2.75;PEDAROUGANDO
10.383333;.933333;PAYAKE
9.8;2.95;PASSO
9.866667;3.266667;DE
7.75;2.183333;DASSAZUME
7.75;2.183333;DASSAZOUME
6.3;1.9;AVLO
6.583333;1.733333;AVEDJI
10.316667;2.85;GOUNEROU
9.933333;1.583333;GOUMOURHOUGPANDOLOU
9.666667;1.7;GOUMBOUSSA
9.666667;1.7;GOUMBOUSSAR
10;2.483333;DANDAROU
10.366667;.833333;NYIANANDE
10.95;2.716667;NOUOKA
10.516667;1;NOUANGOU
10.733333;.9;KOUFOROUPISSIGA
6.383333;2.333333;AGONKAME
6.8;1.65;AGOHOUEBALIME
6.8;1.65;AGOKOUE
9.9;2.4;KOUMI
11.166667;2.316667;KOUMANKOUROU
9.933333;1.45;KOULVEMRHOU
9.866667;3.233333;KOULINEWOROU
9.283333;2.616667;SOKOUMENO
9.616667;1.45;SOKOBO
7.2;1.733333;SODJAGOTOE
10.716667;1.816667;BORO
9.3;2.566667;BORAROU
9.966667;1.816667;BOOUIREKOU
7.216667;1.783333;KOGBITOKOE
9.5;3.05;KOMIKOUBABI
9.566667;2.716667;KOLORI
10.866667;1.983333;KOLI
9.3;1.583333;KOKOTCHI
9.3;1.583333;KOKOTYI
9.066667;1.8;SEBETOU
9.45;1.766667;SAWOUNDI
7.966667;1.966667;FORETCLASSEEDESAVALOU
9.583333;2.283333;SASSOUROU
6.883333;1.983333;MOKPA
6.883333;1.983333;MAKPA
10.1;2.716667;MOKA
9.783333;1.433333;MOCHIRHA
6.683333;1.983333;METETON
6.683333;1.983333;MEDETOGBO
6.75;1.833333;TOSOUME
6.55;2.2;TORRICADA
6.55;2.2;TORIKADA
6.55;2.2;TORICADA
11.3;2.266667;TORANAGAGUI
9.133333;2.583333;SENAKOUASSO
10.366667;2.866667;SEMI
7.383333;1.916667;FOKI
9.133333;2.133333;BEYAKA
9.2;2.266667;BETEROU
10.016667;2.9;BEROUPANE
9.183333;2.45;OUBOU
10.533333;.966667;OUBANGOU
6.516667;2;OUEDJLO
6.516667;2;OUADJITO
9.866667;3.15;SOUNOUREKOU
7.016667;1.65;CLOVE
10.183333;2.466667;NIEGOUSSOUROU
10.883333;1.483333;KOUALEGOU
10.916667;1;KOTIOHOUM
10.416667;2.783333;KOTAGO
9.016667;2.6;SIDE
9.55;1.866667;SETIMSI
9.55;1.866667;MAMANGO
8.866667;2.616667;SEROU
9.366667;2.433333;BISSIRA
10.7;2.033333;BIOROU
10.583333;1;BINONINTIEGA
7;1.85;DJIHAMI
6.416667;2.616667;DJERIGBE
6.416667;2.616667;GERIGBE
6.416667;2.616667;GEREGBE
8.3;2.4;DJEGBEKANFANGOUDO
6.4;1.816667;DJANGLANME
6.4;1.816667;DJANGLAME
9.75;1.766667;KPARTAGO
7.683333;1.966667;OUIKLADJI
6.583333;2.3;DONDJO
7.416667;1.983333;DONA
6.5;2;DOME
9.483333;1.466667;KPOTOKPOTO
7.483333;1.683333;KPODE
9.35;1.7;KPIMA
11.45;2.366667;KPESSIDARA
9.783333;3.033333;BASSOUSSOU
9.766667;1.7;BASSOZA
9.766667;1.7;BASSOOUSSAR
10.616667;1.983333;BASSINI
10.633333;2.9;BASSANO
10.9;.933333;DOLIHONHOU
9.1;1.933333;DOGUE
10.5;.566667;SILEBONGO
10.5;.566667;KOUNTIENGA
10.5;.566667;SILEBONGA
7.616667;1.883333;BOIBABLIN
7.85;1.816667;BOGUI
7.25;1.883333;BOGBOHONOU
6.833333;1.766667;BODEME
8.016667;1.683333;AGAN
11.166667;2.85;TOUMAPENOU
9.1;2.35;KIETIA
9.733333;1.75;GA
9.75;1.7;PAMBALAO
9.75;1.7;KPAMALANGOU
9.55;1.55;KPAKOOURANGA
7.366667;1.983333;SAKETE
10.016667;1.416667;SAKASSON
9.05;2.5;SAKANA
9.55;3.1;MASSIAKOURA
9.5;1.816667;MASSAOKPARAO
10;1.566667;TEEBANI
10;1.566667;PANDOUROU
10.833333;.966667;TANFARGA
7.316667;1.783333;TANDJI
9.716667;3.233333;TANAKPE
9.966667;1.433333;KANKOULRHA
10.65;1.983333;KANIAMA
9.633333;1.483333;KANDIAKOUBONG
9.266667;1.55;LANTAE
7.55;1.866667;LANGBON
7.2;1.833333;LAGBORCHE
7.316667;1.783333;LABLOUTANGON
9.866667;1.6;TAMPEROUN
10.55;1.216667;KOYADI
10.566667;1.216667;KOUTIEKONGOU
6.616667;2.65;KOUTIOUEFI
6.616667;2.65;WETINKUTI
6.616667;2.65;KOUTI
6.616667;2.65;KUTIUEFI
6.616667;2.65;KUTIILEFI
10.183333;1.116667;KOUTATIEGOU
7.216667;1.966667;SOTTA
9.666667;2.916667;SORIGANDO
8.35;1.816667;OMINI
10.65;1.183333;BOULI
9.9;1.4;BOUKOI
7.783333;1.733333;AKPAKOUROU
11.116667;2.833333;GANDOGANGA
10.2;2.45;GANDO
10.9;2.166667;GANBORE
10.9;2.166667;GAMBORE
10.9;2.166667;GAMBURE
10.9;2.166667;GAMBOUE
11.233333;2.35;TINTEMOU
10.433333;2.566667;TINHOULE
9.95;1.65;SANYERANGOU
9.95;1.65;PANELRA
8.1;2.283333;SANSOUPE
9.916667;1.5;DARA
9.916667;3.216667;DANRI
10.75;1.5;CHAINEDELATAKORA
10.75;1.5;CHAINEDELATAKORA
10.75;1.5;CHAINEDELATAKOPA
10.75;1.5;MONTSDELATACORA
10.75;1.5;CHAINEDELATACORA
10.75;1.5;ATTACORA
10.75;1.5;MONTSDELATAKORA
10.75;1.5;CHAINEDELATACORA
10.75;1.5;ATAKORAMOUNTAINS
11.466667;2.783333;KOUNEGOU
9.4;1.45;ODOLA
8.316667;2.05;ODOKOTO
8.85;2.233333;ODOHOUKBA
8.8;2.2;ODOHOKPO
8.283333;1.9;ODOAGBA
7.016667;2.15;AGRINE
7.016667;2.15;AGRIME
7.466667;1.916667;AGOUSOTODJI
9.383333;1.45;AGOUGOU
8.283333;1.966667;AGAOUA
8.283333;1.966667;AGWA
8.283333;1.966667;AGOUA
8.283333;1.966667;AGUA
10.083333;1.933333;WARAKOU
10.683333;2.683333;WARA
9.766667;2.5;BAKOUBOUYA
6.883333;1.95;TCHI
11.466667;2.5;IBOKOTO
11.216667;2.8;DINE
10.466667;1.383333;DIKOKORE
11.2;2.383333;DIGBAGOUROU
9.616667;1.6;DIERHOU
7.266667;1.966667;AKOUESSA
9.933333;1.466667;FERMEDEPSEAN
9.933333;1.466667;BIEBEUSSENNRHA
7.466667;1.983333;ADJADJAGON
7.15;1.883333;ADIMADEGON
9.416667;1.983333;MONTADIANGDIA
9.283333;1.5;ADELI
8.366667;2.7;TONI
7.416667;1.733333;TOMETI
9.866667;2.5;BELKOKPAROU
8.35;1.616667;BELEDAI
7.233333;2.233333;ZOUTO
7;1.833333;HONDJIN
7.283333;1.95;HOGBAYE
7.283333;1.95;HOGBAHIE
6.45;2.233333;HEVIE
7.816667;1.933333;HEDJANAMONOU
9.733333;1.733333;DENDOURHOU
10.533333;.866667;KAYODE
9.8;1.366667;KATAKPALAO
10.733333;2.133333;PIKIRE
10.733333;2.133333;PEKERE
10.616667;.933333;PETINOU
7.35;1.816667;LOKUITE
9.816667;3.15;DONGBANE
10.1;2.35;BARO
9.95;1.966667;BARE
9.95;1.966667;BARI
7.166667;2.583333;PLATEAU
7.166667;2.583333;DEPARTEMENTDUPLATEAU
11.033333;2.283333;SABINESSON
10.666667;2.833333;RABANOU
10.8;.983333;POURNIARI
6.533333;1.766667;TOHANOU
6.533333;1.766667;TCHANOU
7.866667;1.816667;AKAKADOHO
6.6;1.666667;AHOUAME
7.383333;1.816667;AHOLOSOU
6.35;2.183333;AHOGBE
9.516667;2.333333;WEGO
9.683333;1.716667;WAWALRHA
10.183333;2.133333;WASSATOBRE
11.166667;2.216667;GBASSARA
11.216667;2.2;GBANTE
6.783333;1.733333;GBANAVE
7.05;1.816667;BOROME
10.75;1.533333;NAAGE
6.35;1.816667;TOKPA
11.3;2.416667;TOKEBANTA
7.016667;1.833333;TOKAME
6.383333;2.183333;LAGUNETOHO
10.283333;2.133333;TOBREDAROU
11.383333;2.3;TOBE
10.283333;1.266667;TISSOFONTI
10.283333;1.266667;TISOFONTI
9.4;2.566667;FORANEKPAROU
6.6;1.783333;LACTOHO
6.466667;2.3;OUEGA
7.35;1.75;OUEDIHOUKOLI
9.716667;1.916667;KONINGA
9.716667;1.916667;ANGARA
7.083333;1.683333;AMOUDOKOE
7.3;1.716667;AMETCHONOUI
7.883333;1.85;AMAZON
7.55;1.9;AMA
9.35;1.616667;YARI
11.316667;2.716667;YAOBEREGOU
10.483333;3.7;YANA
7;1.716667;TOUVOU
11.133333;2.316667;TOUNOUKEGO
8.816667;2.616667;GAMOUKA
11.033333;2.883333;GAMALI
11.2;2.966667;GALA
11.316667;2.533333;GAKASSENOU
6.516667;2.7;MERIDJONOU
6.516667;2.7;MERIDJONU
6.866667;1.833333;MEAVEKOU
9.6;1.766667;TIRANGA
9.6;1.766667;KIRANGA
10.35;1.45;TIORI
11.216667;2.316667;SOUNSOUN
8.5;2.416667;OUNBEKUIDO
7.816667;1.733333;OUKOUROUKOUKOU
7.016667;1.716667;ATTOHOUE
7.983333;1.816667;ESSAIGNON
7.45;1.683333;EKPI
8;1.683333;EKPA
8.466667;2.633333;ECHOKOFONVEKA
6.45;1.833333;DRE
9.65;1.366667;KANAODJA
9.4;2.683333;KAMIWOROU
11.45;2.433333;KALI
9.9;1.366667;KAKPALA
8.066667;2.283333;PASSI
9.416667;1.583333;PARAO
7.266667;1.9;PAOULAKPA
10.466667;1.183333;WAKOU
9.516667;1.566667;WAGA
8.85;2.433333;WABOU
11.1;2.3;SINWOGO
9.516667;1.733333;SINNGREU
9.516667;1.733333;SEGRE
11.333333;2.583333;KEYASSIE
11.283333;2.75;GOUNTIA
9.7;1.95;BARAKPANANGA
6.716667;2.783333;BAOUDJO
6.716667;2.783333;BAODJO
10.566667;.866667;ITOUADE
10.266667;1;ITADI
9.6;1.366667;DJOTO
9.766667;2.983333;OURARA
7.666667;1.65;OUNTO
9.216667;1.583333;TARE
10.1;1.416667;PERMA
9.283333;1.566667;FORETCLASSEEDEPENESSOULOU
9.283333;1.566667;FORETCLASSEEDEPENESOULOU
10.216667;2.916667;BABI
9.683333;1.716667;BABADJIMBA
7.266667;2.45;LACAZINI
7.266667;2.45;LACAZIRI
6.716667;2.116667;AYOU
7.466667;1.716667;ZOUKOUKAN
6.383333;2.233333;ZOUGOUDO
6.383333;2.233333;ZOUGODO
7.366667;1.65;ZONKLANDJI
7.083333;2.1;ZOGBODOME
7.083333;2.1;ZOBODOME
7.3;1.916667;ZINKAME
9.883333;3.1;SOUMAROU
10.9;2.85;SOUDE
9.866667;2.933333;GANDOUDONSARA
9.233333;2.25;BOKOSSEREROU
10.45;2.816667;BOKE
7.616667;1.85;MOLOUKOU
10.916667;2.883333;KIRONBOUYA
9.9;2.883333;KIRANE
7.016667;1.733333;KODJAHOUE
8.15;2.266667;KOBASSATE
10;3.016667;BEHEGOUHOUROU
10;3.016667;BEEGOUOUROU
7.383333;1.816667;BEDIME
10;1.8;GOZINA
10.7;2.666667;DASSARE
11.316667;2.366667;DAROUWIROU
9.65;2.466667;DARNO
9.866667;1.6;TCHAMOYE
9.866667;1.6;DARNINGA
9.866667;1.6;PABEGOU
10.2;1.383333;KOUKOUETOUKOU
10.383333;1.05;KOUKOGOU
10.15;1.266667;KOUISSIGOU
7.433333;1.666667;GOUGOUTA
7.716667;1.733333;OUHOUNIAGO
6.65;2.25;OUEZOUME
6.65;2.25;WAZUME
7.416667;1.8;OUEOUGON
9.6;3.25;KOURINEGA
10.85;2.916667;SONOUKOKA
11.2;2.466667;SONMBEREKEREKOU
11.283333;2.366667;SONGOROGOUROU
9.833333;2.4;BOUENI
8.266667;1.833333;BOUBOULE
7.25;1.983333;AHEVI
9.166667;2.166667;WARIMARO
9.166667;2.166667;OUARIMARO
9.15;2.166667;SOUBAKPEROU
10.483333;3.55;SOUARA
10.483333;3.55;SOTA
9.883333;3.1;BOUREROU
9.233333;2.516667;BOUN
7.716667;1.866667;KONKON
9.466667;1.6;KONGA
11.433333;2.85;KONEKOGA
9.733333;2.4;KONDEROU
9.583333;1.716667;BINIANGA
10;1.433333;BILFOOURHAKPASINGREU
9.55;1.45;NEGLEDE
9.55;1.45;KEKELEBA
10.633333;1.866667;FIRI
10.066667;1.533333;FINDARA
10.5;1.483333;FENIAGOUBOUTE
6.866667;1.833333;ARAME
7.383333;1.816667;AOUTE
9.2;2.783333;YEREMAROU
9.383333;1.6;YELENDOU
10.416667;1.233333;TAKIETOUOTA
10.816667;1.016667;TAGOPORGA
10.316667;1.216667;TADOUENNTA
10.316667;2.116667;CHIAKANOUKONE
10.083333;1.383333;TCHOUMITCHOUMI
9.316667;1.75;POUGOU
7.233333;1.866667;DJAHO
10.483333;1.033333;DITETEGLE
10.3;1.1;DIPOKO
9.466667;3.1;BAKEROU
9.5;3.05;BAKA
9.883333;2.616667;KPABO
6.466667;2.533333;HOUTEZOUME
10.3;2.316667;DODOROU
11.683333;2.366667;DOBALA
11.333333;2.483333;KPESSANROU
9.15;2.266667;KPERE
9.683333;1.45;KPELIDE
10.616667;1.316667;TIANTEFA
9.433333;2.516667;TIANBEREKOU
10.55;1.333333;TIAKALATOU
10.55;1.333333;TCHAKALAKOU
10.516667;1.133333;TIAETA
10.516667;1.133333;TAIETA
6.65;2.7;DANIGBE
6.65;2.7;BANINGBE
6.65;2.7;GAREBANIGBE
10.25;.916667;BANIANE
10.433333;1.55;BANGRETAMOU
10.433333;1.55;BANGUIRITAMOU
7.016667;1.983333;AOUAKAME
9.716667;1.5;ANOUN
9.716667;1.5;KOSSARAROUM
10.283333;2.333333;ANGARADEOUROU
9.333333;2.266667;YEBESSI
8.483333;2.616667;YAWI
11.316667;2.65;YASSIRISSON
10.166667;1.3;KOUANKOUKOUANGOU
11.25;2.266667;GONPONBOUYA
7.2;1.9;GOME
10.183333;1.6;NIARO
10.183333;1.6;NIORO
9.033333;2.183333;NIANMPIKI
7.416667;1.716667;GOUGOU
9.2;2.483333;GOUAROU
6.983333;1.733333;HOUGBAME
7.4;1.8;HOUEDANHOUGON
7.25;1.666667;HONHOUN
10.533333;2.65;MARI
10.366667;1.316667;TAMIENGOU
11.033333;2.216667;TAMANKOUROU
10.766667;2.2;TINGOUROU
9.1;2.883333;TANDOU
9.1;2.883333;TINDOU
9.1;2.883333;TENDU
9.1;2.883333;TENDOU
9.1;2.883333;TANDU
10.65;.833333;TINDAWANGA
11.366667;2.6;TIMMBEREKOU
10.483333;1.95;TIKOUDAROU
9.466667;3.1;DOUNGANKPARO
10.883333;1.516667;DOUGOUTEABOU
9.3;2.566667;DOUEROU
9.383333;2.116667;WEWE
10.783333;2.8;WERE
10.783333;2.8;OUERE
7.516667;1.666667;GBELOE
11;2.666667;GBEDAROU
9.65;3.016667;NANGOBIGANDO
10.433333;.883333;NANAGADE
9.616667;3.2;NAMORI
11.216667;2.9;NAGABITA
9.816667;1.383333;NABRO
10.95;1.55;TADANGOU
10.133333;1.3;TABANGATIETA
7.333333;1.833333;SOVLEGNI
10.2;2.883333;NIONE
9.55;2.816667;NIESSI
9.933333;1.4;NIENEKOUE
10.233333;1.716667;NIEKREBANSOU
10.233333;1.716667;NIEKENEBANSOU
8.783333;2.233333;AGBASSA
7.85;1.916667;AGBALAKUN
10.066667;1.3;WANKO
10.066667;1.3;OUANKO
10.066667;1.3;OUONKO
10.95;3.333333;WANA
9.983333;1.683333;GARAKOURSI
7.4;1.75;GANKPONZALI
9.833333;1.683333;GANGASSI
10.833333;2.466667;MOROKOU
6.283333;1.85;MONO
6.283333;1.85;MONU
6.283333;1.85;AGOMERIVER
6.283333;1.85;HAHO
9.7;2.283333;MONDOURO
9.5;1.383333;KOUNAKOURO
10.633333;1.833333;GOUTERE
10.033333;1.633333;GOUSSONBOUYA
10.7;1;TCHALBOUIKA
10.4;1.033333;TATOUTA
10.45;1.416667;TATABA
10.8;2.6;DIADIA
7.216667;1.933333;DETOHOU
6.683333;1.833333;ZOUNKPE
6.683333;1.833333;ZOUNKPA
10.6;1.033333;MAHONTINGA
9.366667;2.533333;SOUROU
8.15;1.9;ALOBA
8.883333;1.783333;ALLEBALOU
10.75;2.416667;FORETCLASSEEDELALIBORISUPERIEUR
9.266667;1.566667;ALENE
11.166667;2.983333;ALAFIAROU
11.283333;2.666667;YAFEKOGA
10.933333;1.483333;YABITI
9.2;2.533333;WOTOUROU
11.066667;2.783333;WONIOUROUKOU
10.433333;1.166667;LOKONKOUANE
8.05;1.966667;LODJI
6.5;2.266667;TANTO
10.533333;.816667;TANTANE
10.183333;1.15;TANONTANI
10.5;1.316667;TANMBOYOTOUFA
10.6;1.383333;TANMBARAGOU
6.55;2.45;DEKINAFIO
6.55;2.45;DEKINFYO
6.966667;1.7;DEKAME
6.966667;1.7;DECAME
9.866667;2.9;DEBOU
9.283333;2.466667;KASSAKPERE
7.166667;1.816667;FAGIGARHOE
10.75;1.266667;MOUNHON
11.383333;2.533333;KOKE
10.366667;1.516667;FAYOURE
10.033333;1.383333;FASSOBOUFA
10.033333;1.383333;FABASOFA
10.233333;1.483333;FOKOUATEFE
10.233333;1.483333;FAKOUETIFE
9.033333;1.616667;GUIFELA
9.966667;2.95;GUEROU
7.833333;1.316667;OGOU
7.833333;1.316667;GUGU
7.833333;1.316667;GOUGOU
7.833333;1.316667;OGU
8.2;2.633333;ALAFIA
8.2;2.633333;HALAFIA
8.8;2.216667;AKPON
7.466667;1.733333;AKPETE
8.266667;2.583333;WOLOKO
10.5;2.95;WISSIYEROU
9.65;2.216667;SORI
7.333333;1.866667;SOPOUNTA
7.416667;1.966667;SOPA
9.25;2.35;GBEROUKPANE
10.716667;2.033333;YAKRIGOUROU
10.716667;2.033333;YAKRIGURU
10.716667;2.033333;SAKRIGOUROU
8.483333;2.433333;YAKOKO
6.516667;2.366667;TOPO
6.516667;2.366667;GOLOTOKPA
6.516667;2.366667;GOLO
9.333333;2.483333;GOGBOREROU
7.766667;1.733333;GODO
11.266667;2.816667;NIANAKOGA
10.483333;1.983333;NIAMAKOUEKPARE
9.766667;2.816667;NIAKPARE
9.833333;1.683333;NIABANMGA
9.266667;1.716667;NGMELLANG
10.35;2.75;KONTI
7.783333;1.733333;ADJAKOKOU
11.3;2.966667;ATAKI
6.366667;2.033333;ASSOGBENOU
6.366667;2.033333;HALTEDASOGBENOU
7.333333;1.833333;ASAGON
11.25;2.466667;AROUBERE
8.083333;2.3;ARHOBOBBO
10.666667;.9;YOYOLI
9.9;1.866667;YOUROUSSONGA
9.9;1.866667;YOROUSSONGA
10.65;1.416667;YOGOTERRI
8.716667;2.533333;YOBOUE
9.2;2.216667;YEVE
9.516667;3.166667;YEROU
9.8;3.15;GORE
9.066667;2.433333;KPEBA
10;1.783333;KPATORO
7.416667;1.8;KPATAKPODJI
10.716667;1;SAMON
10.683333;.916667;SAMAHOU
10.033333;2.85;BOUINSIO
11.45;2.466667;BOUGOUTENA
10.166667;1.95;BOUEROUBANKRANNOU
10.166667;1.95;BEREGNAMNO
10.166667;1.95;BEROGNANINO
10.166667;1.95;BEROGNAMNO
10.166667;1.95;BEROGNAMA
9.666667;1.65;PANIENANDOU
7.3;1.683333;ATRI
7.216667;1.666667;ATOMEAHEVI
7.383333;1.766667;ATENOUGON
7;1.7;ATCHOUE
9.716667;1.516667;ATAKOUZAR
10.266667;2.733333;BEBAROKOU
10.566667;1.483333;BAZIKOU
9.466667;1.466667;BATIOWO
9.466667;1.466667;BANKABIA
8.333333;2.016667;KAKOA
7.516667;1.85;KAKATE
10.683333;1.033333;DAMON
9.95;3.116667;DAKOU
10.116667;1.866667;DAGUI
6.566667;2.7;DAGBE
6.566667;2.7;DAAGBE
8.716667;1.85;MONTSKOUFFE
9.533333;1.45;KOUELE
9.533333;1.45;DJOUE
8.383333;1.65;MONTKOUDIA
9.85;2.95;KOUBOURE
9.166667;2.516667;SAKPANOU
10.933333;1.066667;SAKOEHOUM
10.933333;1.066667;SOKOUEOU
9.15;2.333333;BANIGUIRI
10.55;2.683333;TERA
9.916667;1.883333;TEOKOUKA
9.9;2.466667;TEME
9;2.583333;TEPARAMARO
9;2.583333;TEKPAROU
9;2.583333;TEKPARA
10.683333;1.633333;TEEBOURFA
6.916667;1.666667;DJIPAME
7.066667;1.916667;LOUKPE
9.45;1.533333;KAOUTE
10.916667;.95;KANTOBI
9.066667;1.933333;PENDERE
7.383333;1.75;PELEKEGON
9.85;2.316667;PEDORE
8.2;1.666667;MONTLARE
8.833333;1.683333;AWORO
10.383333;1.75;SEKOUGOUROU
10.383333;1.75;SECOUGOUROU
9.85;3.316667;SEKOBOUMPARO
11.35;2.983333;SEKALE
9.05;2.75;SEGOUTOU
9.066667;2.533333;BEREKPANE
8.95;2.633333;BERADOUROU
10.6;.966667;KOUASSEFOUA
7.033333;1.983333;SINHOUE
10.766667;.95;SINDORITONEA
9.8;3.216667;SINASSINROU
10.616667;2.666667;SINABANOU
6.466667;2.416667;RIVIEREZOU
6.466667;2.416667;SO
8.183333;2.366667;NONOME
9;2.5;NIZOUHABOU
10.116667;2.9;NIOKALAKALE
10.116667;2.9;NIONKALAKALE
10.116667;2.9;NIONKALAKAFE
11.35;2.583333;BONMBOLO
11.266667;2.333333;BONIGUI
7;1.683333;AGNIBANDJIN
6.633333;1.966667;AGBODJI
7.333333;1.95;AGBLOME
7.233333;1.75;VOLLILATADJI
9.716667;1.816667;VERGOU
7;-4;OBERGUINEA
7;-4;GUINEASETTENTRIONALE
7;-4;UPPERGUINEA
7;-4;GUINEADELNORTE
7;-4;NORTHERNGUINEA
9;1.816667;KOAKOALIKI
9.633333;2.366667;KOKOSIKA
9.516667;1.583333;KOKOOURHOU
9.516667;1.583333;KOKOUROU
11.333333;2.55;KOKOLE
7.316667;1.9;SASEGOUIBASAGO
9.966667;3.033333;SARAKPAROU
9.283333;2.65;MOUNDOURO
10.266667;1.3;MOUKONTAMOU
10.616667;1.05;MOUARKA
10.283333;2.9;KOURANKOURE
10.25;1.016667;KOUPOKOU
7.35;2.3;BANAMEASSIANGBOME
9.95;3.416667;SANSI
11.616667;2.433333;SANPETO
10.533333;1.016667;SANIOURI
10.85;1.466667;SANGOU
8.116667;2.716667;SANDEOU
10.283333;2.95;OROBOROKPAROU
7.133333;2.066667;KANA
7.133333;2.066667;CANA
9.416667;1.516667;BOUTOUM
9.416667;1.516667;BUTUM
9.416667;1.516667;BOUTOU
9.333333;2.5;YAKASSIROU
7.35;1.766667;KOSOSA
9.65;1.516667;KOROL
11.4;2.4;KORIKIGOUROU
11.433333;2.416667;KORI
6.566667;2.3;GLEBODJI
6.566667;2.3;GBEBODJI
9.816667;2.983333;SEREBOU
9.883333;1.7;NGBOUNGBOU
10.7;2.633333;MAREBOUYA
7.15;1.833333;MAOUGBERHOE
10.833333;1.05;MANOGAYE
9.583333;1.8;MANDJA
7.333333;1.916667;POTA
10.6;1.416667;PORHOU
10.5;.733333;POMPADEGA
10.5;.733333;POMMPADEGA
11.266667;2.283333;POGOU
9.883333;1.883333;BADORE
9.883333;1.883333;BADORI
10.35;.883333;KADIANE
9.533333;2.933333;KABALOUN
7.25;1.816667;PAKPAKAN
8.983333;1.95;IGBRE
8.983333;1.95;IGBERE
8.983333;1.95;BLE
6.666667;2.716667;IFANHIM
6.666667;2.716667;IFANHIN
10.616667;1.033333;TESSIBOHON
11;2.683333;TERI
6.85;1.983333;SAHOUDO
10.833333;2.566667;SADOKARA
9.683333;1.5;BAMBREU
9.3;1.8;BAKPEHOU
9.516667;1.416667;NIANGBAKABIYA
9.516667;1.416667;NIAKPAKABIA
11.083333;2.766667;NIANDAROU
6.816667;2.466667;AFFAME
6.883333;1.833333;ADOUKOUE
6.416667;2.033333;ADJOHOUNDJE
6.416667;2.033333;ADJOHOUNDJA
9.116667;1.866667;ADJIMA
10.383333;.85;TOUKANTE
9.416667;1.416667;TOUASE
8.5;2.35;TOSSO
10.733333;2.466667;FRO
9.8;1.75;FOUNGPELRHA
6.866667;2.666667;FOUDITI
6.65;2.166667;TOGOUDO
6.65;2.166667;TOGODO
6.65;2.166667;TOGBODO
10.216667;1.233333;TIAPETA
9.616667;1.583333;TEREKOUKA
9.1;2.533333;TAMMBOUKIROU
9.616667;2.666667;SAMONE
7.15;1.666667;DOLOME
10.583333;2.966667;PAKTIN
6.516667;1.833333;SEGBO
9.933333;3.25;BEROU
10.033333;1.416667;KOUTANTAGOU
9.783333;3.15;SORIAGANDO
7.6;1.683333;AKLEME
7.6;1.683333;AKLAME
7.6;1.683333;AKLEIME
9.883333;3.016667;WERAGANDO
8.5;2.433333;GBEME
10.733333;1.666667;TANKONGA
9.7;1.733333;DEDENNDEU
10.516667;1.05;TOUGA
10.516667;1.05;TOUGO
9.916667;1.783333;FOUMBERHA
9.916667;1.783333;PAKOUKA
6.5;2.45;OUEDOAGUEKO
6.55;2.333333;GOLODJIGBE
7.433333;1.966667;TOSOUGON
7.3;1.966667;HONVI
10.4;2.483333;MAREWORDOU
10.283333;1.333333;POSSEYEYE
7.216667;1.816667;LEVOURHOE
6.933333;1.733333;PALOHOUE
6.933333;1.733333;PATOHOUE
6.933333;1.733333;PATAHOUE
9.9;2.783333;BOKORO
10.716667;3.016667;KIPEDA
6.5;1.966667;DAHE
9.766667;3.016667;KOUBOUREDAROU
10.033333;2.766667;SIKOURO
10.033333;2.766667;SIKURO
8.25;2.033333;BOHOUE
10.866667;2.083333;OURONKOURAROU
9.916667;1.583333;SAKPOATANI
9.916667;1.583333;PANDOLOU
6.966667;2.683333;POBE
6.966667;2.683333;IPOBE
10.533333;1.05;BAGAPODI
9.266667;2.6;SARAWALOU
10.8;.9;KOUPOKONDO
10.6;1.1;KOUNDRIOUBATOHON
9.966667;1.65;DJESSEKOUSINNGREU
9.966667;3.083333;SERE
9.966667;3.083333;SEREWANDIROU
6.916667;1.916667;ADJAGLAME
6.916667;1.916667;ALASSANE
10.4;2.483333;SOUTEGOUROU
8.05;2.716667;ALE
10.333333;1.766667;WONO
8.666667;2.666667;ODOHBAN
7.233333;1.816667;AGOUGAN
10.45;1.116667;WANDOUETA
10.25;2.316667;TINDORA
7.466667;1.65;DOUSSA
9.733333;1.383333;KADOLASSI
6.7;2.216667;PACHAGON
9.866667;2.55;OUROUGOURE
9.833333;1.666667;GALOGO
8.35;1.933333;ATAKE
11.3;2.933333;AROUNA
11.25;2.383333;YOKPANOU
10.583333;2.083333;GORDOBA
10.183333;2.966667;GBESSI
8.15;2.25;ROSSO
9.35;2.366667;DEWE
10.666667;1.35;TANFORGOU
9.216667;2.866667;KOBI
8.45;2.333333;BEFFA
11.6;2.666667;GOUGOUNO
10.4;2.033333;CHOUDOU
10.9;.983333;KOTIARI
10.733333;.966667;TIAHOUNKOSSI
9.683333;2.85;BANI
10.383333;1.633333;SOA
6.75;1.933333;AGNAME
7.183333;1.966667;AGBLOMELEVI
11.45;2.333333;KPESSIDARA
7.466667;1.65;BATADJI
6.416667;1.966667;DUMBO
6.416667;1.966667;DOGBA
10.15;2.566667;KENEKOU
10.1;1.216667;KOUSSONYIGOU
7.4;2.666667;OKPOMETA
9.366667;1.483333;OGOUGOUWORO
6.6;1.633333;AHOHO
10.233333;1.383333;BERSINGOU
10.233333;1.383333;BERECINGO
6.516667;2.6;OUANDO
9.6;3.133333;BOURAINEGA
11.183333;2.8;BOULINIERI
10;1.716667;WARKOUKE
8.366667;1.816667;ATTIA
8.416667;2.433333;EKLE
9.933333;1.616667;KAMORHOGALORHA
9.933333;1.616667;PANDOLOU
9.35;2.616667;PARAKU
9.35;2.616667;PARAKOU
10.233333;2.933333;DABA
11.166667;2.416667;ANGARADEBOU
9.616667;1.75;YATANRHA
8.8;2.6;KOHOTO
8.8;2.6;KONKOTO
6.583333;2.5;HETINSOTA
7.883333;1.716667;KATA
9.883333;1.4;PIKHA
7.516667;1.85;NOUDOVAGON
9.483333;1.816667;GOOUNKPA
11.516667;2.416667;NIARABANA
7.116667;1.916667;ADOMOUGON
8.383333;1.85;TCHOKOBO
7.05;1.983333;SINHOUELOGO
11.083333;2.75;GANDOPENEROU
9.833333;1.8;GANGGOROGO
8.283333;1.816667;MONTMORO
8.066667;1.983333;MONDJI
10.65;1.483333;KOUNDE
10.616667;1.183333;BARATOLO
10.45;.816667;BANSALE
10.6;.883333;SANBEHOU
9.85;3.25;DOROUNWEROU
8.583333;1.7;BARIBA
11.2;2.333333;ADAMOU
6.666667;1.616667;TOKPLI
6.883333;1.633333;TODJIME
9.95;2.95;OULAROU
8.316667;1.9;AKPOUATI
11.35;2.416667;SONWORE
10.166667;1.95;BOUEROUGOUROU
10.85;1;MADOGA
9.866667;1.95;PESSI
9.75;1.55;DORI
9.75;1.55;BABANZAOURE
8.033333;2.483333;SAVE
10.433333;1.8;MINDOU
7.166667;1.95;OUENOUNIGNON
9.633333;1.916667;BOUADARA
9.95;1.483333;KANKOULRHANEUMRHOU
9.05;1.666667;LAGBERE
10.366667;1.283333;TAKOUTA
10.633333;1.866667;SIANOUKOKA
11.216667;2.516667;BINIKOGA
7.383333;1.75;FETE
7.166667;2.4;SAGON
10.683333;.85;BAMOUAGA
6.833333;2;TCHIAVETETA
9.233333;2.6;IBRASSIMGA
10.233333;2.316667;GANDO
9.633333;1.65;SAOUTIOURI
10.516667;1.333333;DANGUIMAPIGA
7.233333;1.666667;AGBAN
11;2.783333;TOUZA
9.35;2.366667;KPEROUNKOUKA
9.133333;2.966667;INESSAKOU
11.166667;2.283333;FAKOUN
10.583333;1.283333;KOUMOUNA
10.733333;2.783333;SOKOUMBEROU
7.85;1.9;SOGO
9.75;2.75;NORTHEAST
9.75;2.75;DEPARTEMENTDUBORGOU
9.75;2.75;PROVINCEDUBERGOU
9.75;2.75;DEPARTEMENTDUNORDEST
9.75;2.75;PROVINCEDUBORGOU
9.75;2.75;BORGOU
7.583333;1.833333;ATIOLOR
7.25;1.683333;BAVOU
10.266667;2.733333;BEROU
9.216667;2.533333;BEREKPANE
11.183333;2.866667;SANROU
9.85;1.8;SANKOUROU
7.85;2.666667;RIVEROPESUKU
9.483333;1.65;KOUTOUNGA
10.6;.966667;MAGA
8.416667;1.666667;LOYA
11.1;2.95;LOUSSI
9.45;1.55;KOUTE
10.316667;2.166667;NINGOUSSOU
10.333333;1.766667;NIENKOUSSANMBOU
10.3;1.65;NIEKENE
7.066667;1.983333;AGBIDIME
6.35;2.216667;AGBANZIN
6.35;2.216667;AGBANZINKPOTA
9.566667;1.483333;AGBANBOULOU
9.316667;2.483333;SEBOU
9.233333;3.083333;SAYOUNKPARO
11.1;2.433333;SATOHA
10.633333;1.983333;MOKA
6.616667;2.516667;MITRO
6.616667;2.516667;METLO
6.566667;2.55;MIDOTOKPA
6.566667;2.55;MODOTOKPA
7.416667;2.05;DIRIDJI
7.416667;2.05;DIVIJI
7.416667;2.05;DIRIJI
11.3;2.483333;BAKANI
7.35;1.783333;HOUTCHATAGON
8.133333;2.266667;HOUIN
9.983333;1.55;HONGON
10.4;1.35;DOYAKOU
9.233333;2.633333;BEBIEOUROU
10.566667;1.333333;BEATOUGOU
9.833333;3.083333;BATERE
11.833333;2.6;DIATI
11.516667;2.533333;DIADIA
10.4;1.716667;DEROU
9.516667;2.533333;SOUANRE
9.65;1.833333;BOURDOUR
9.65;1.833333;BOURDOURHA
10.433333;1.583333;BOURANGA
11.316667;2.683333;BOUNIAKO
10.666667;.783333;KOUROUBAGA
10.666667;.783333;BOULOUBOUANGA
9.316667;2.7;KONKOMA
11.183333;2.983333;GANDOBAKA
10.166667;2.383333;GANDO
10.95;2.1;GANBORE
9.666667;3.233333;TINRA
11.216667;2.666667;SANSOU
6.766667;2.033333;HOUNGO
6.766667;2.033333;OUNGO
6.95;1.766667;HOUMBAME
6.95;1.766667;OUMBAME
6.566667;1.816667;OUINGA
7.116667;1.95;AKPETO
10.233333;.966667;WO
9.65;1.616667;KAMAA
10.733333;1.166667;KALABON
10.4;2.466667;PARO
7.666667;2.183333;PAOUIGNAN
7.666667;2.183333;PAWIGNAN
7.666667;2.183333;PAOUGNAN
10.4;.866667;PANANJORA
8.166667;1.95;ATOKOLOTO
8.166667;1.95;ATOKOLIBE
8.166667;1.95;ATOKOLOBE
8.166667;1.95;ATUKOBI
10.233333;1.2;KOUKOUOGOU
10.35;1.05;KOUKOUAGOU
9.9;1.916667;GOULOUME
10.25;2.866667;SISSIKOUROU
10.016667;1.9;NASSOUTOKO
9.916667;1.916667;NANTERI
7.433333;2.566667;ADAKPLAME
7.433333;2.566667;AVLAPAME
6.45;2.35;KALAVI
6.45;2.35;ABOMECALAVI
6.45;2.35;ABOMEYCALAVI
8.05;1.666667;ABALA
6.7;2.066667;TOKPA
6.7;2.066667;TOPA
9.05;2.433333;TOKOROU
11.033333;2.733333;SAM
10.783333;1.016667;SAKONOU
9.3;2.533333;TEOUGOUROUGANDO
11.183333;2.116667;TEMERE
10.133333;1.616667;SAHOM
9.983333;1.666667;SABIYERIMAFOWA
9.916667;2.333333;BAMOUNIN
10.2;1.7;BACOUSSOU
10.2;1.7;BAKOUSSON
9.283333;2.616667;BAKOUNOUROU
6.883333;1.966667;TCHIATOME
9.116667;2.566667;TCHATCHOU
9.116667;2.566667;CHACHU
7.3;1.783333;SOSOGTE
7.25;1.983333;ONHOUN
10.116667;2.316667;BOUKO
11.333333;2.466667;TOUZOU
9.483333;2.583333;TOUNRE
7.616667;1.966667;IAIA
9.333333;2.716667;TINEKONPAROU
11.316667;2.516667;TINDAROU
9.483333;1.716667;DOUNIANGA
10.3;2.083333;DOUKOUDEROU
10.45;2.55;DOUGOUDAROU
11.533333;2.6;GAMA
10.266667;1.816667;MEKROUGOUROU
10.266667;1.816667;MAKROU
6.316667;2.1;OUIDAHPLAGE
6.316667;2.1;WIDASEATOWN
6.35;2.05;OUETO
10.616667;2.066667;KOURO
10.633333;2.883333;SONOUKAROU
9.683333;1.633333;FORETCLASSEEDESOUBROUKOU
11.2;2.916667;KONGOU
10.65;1.2;KONDITEHON
10.583333;.816667;KADOUAGA
10.066667;2.35;SEKOUKPAROU
9.666667;3.266667;SEKOBOUNKPEROU
6.35;1.916667;SEHON
6.35;1.916667;SOHON
9.766667;2.616667;DANKOUROU
7.266667;2.35;ZAGNANADO
11.166667;2.866667;GOUBOUGO
11.15;2.916667;GOUBOU
7.366667;1.766667;GOTINGON
10.216667;2.3;GOROBANI
11.266667;2.266667;BOUGOUROUNKOUROU
10.083333;2.866667;BOUENORE
9.233333;2.766667;FORETCLASSEEDUNANO
10.5;1.166667;KOLONDOKO
8.2;2.75;KOLEKOU
6.716667;2.666667;SAKETE
9.666667;1.75;SAKALANGA
7.15;2.516667;MASSE
10.316667;1.7;MARIGANDO
10.316667;1.7;MARI
10.833333;.933333;TCHOUKOANG
7.383333;2;TCHIKO
10.733333;.933333;POTIBAKOUTEGA
6.516667;2.633333;ATCHOUPA
9.65;2.883333;OUBO
6.683333;2.3;OUANCON
9.55;1.5;WATETI
9.55;1.5;OTITI
8.45;1.816667;OTCHOUO
8.3;1.9;NOIAMO
10.8;2.1;BONIPOTOKO
7.15;1.983333;AGNANGNAN
6.383333;2.5;AGBLANGANDAN
6.383333;2.5;AGBLANKANTAN
11.6;2.7;WABI
7.216667;1.666667;VIVIME
8.016667;2.183333;SABALOUAGBA
10.7;1.266667;POZENA
9.45;2.716667;MALO
10.083333;1.433333;TASSITA
10.366667;1.2;TARETAREBOUINI
10.416667;1.4;TIESSIKOURBOU
9.416667;2.566667;TIEBONA
7.15;1.866667;DOTOTA
11.15;2.3;DONMBOURE
9.766667;1.683333;FORETCLASSEEDELADONGA
10.316667;2.75;TOKOKONE
6.433333;2.65;TOHOUE
9.866667;1.783333;TIWABERA
11.116667;2.883333;TISSAROU
10.466667;1.033333;TIOKOTI
7.483333;1.916667;DJOGON
6.533333;2.566667;DJIGBE
6.533333;2.566667;DJIBE
9.45;1.45;DJENKEME
7.733333;1.783333;DJALOUKOU
7.733333;1.783333;DJALOKOU
7.733333;1.783333;DJALLOUKOU
7.733333;1.783333;DIALLUCU
9.283333;2.9;KPARI
9.283333;2.9;PARI
6.666667;2.383333;KPANNOU
9.766667;1.6;KPAKPAYE
7.75;1.666667;EOUIHERA
11.383333;2.933333;EKIWO
8.333333;2.583333;EDAHI
10.333333;1.116667;DIMATADONI
8.083333;2.516667;DIHO
8.083333;2.516667;DHIO
9.483333;1.583333;KTIPRIBOUMA
9.366667;2.466667;KABOUYAROU
10.016667;1.416667;KABATJARE
7.333333;1.95;AKODEHAO
9.35;2.75;WERIA
11.183333;2.7;WENAKOGA
6.683333;2.55;GBEKENDJI
6.683333;2.55;BEKANDJI
6.6;2.65;GBEDJEHOUN
8.166667;1.9;GBEDE
7.366667;2.6;KETU
7.366667;2.6;KETOU
6.366667;2.016667;ASSOGBENOU
6.366667;2.016667;ASSOGHE
6.366667;2.016667;ASOGBENOU
9.483333;2.416667;ARTON
6.733333;2.783333;ARO
11.133333;2.833333;YOUPIRI
10.2;1.15;YONMBAGA
10.2;1.383333;YETAPO
6.383333;2.216667;PAHU
6.383333;2.216667;PAHOU
10.566667;.9;OUTOUOTO
9.883333;3.333333;OUROUMOU
8.966667;2.5;GORO
11.316667;2.333333;SONKOURA
9.683333;1.4;SONAHOLOU
9.683333;1.4;SANAHOLLOU
9.2;2.866667;BOUE
8.016667;2.233333;BOUBOU
9.1;2.033333;AGUIMO
11.3;2.266667;MARAGOU
8.966667;1.716667;KANI
8.966667;1.716667;MANIGRI
9.233333;3.066667;MALOUNKOULOU
7.983333;1.916667;KPOTO
7.6;1.75;KPITE
9.316667;2.2;KPESSOU
9.516667;2.833333;BENIAKOU
10.166667;2.35;GUINKOU
9.05;2.516667;GUIDANKOUAROU
9.733333;2.983333;GUERO
8.616667;2.75;OFATOUTA
10.6;.833333;KORHOU
7;2.583333;GLAOUETE
7;2.583333;GBAOUETE
7.316667;1.783333;LANTEDIE
7.116667;1.85;LANTAEGBELAKOU
9.95;1.683333;LAMSESSE
10.95;2.05;MOROKOU
7.3;1.9;MONOBODOLO
10.266667;1.15;KOUNANIENGOU
6.683333;2.233333;TANTA
10.683333;1.333333;TANMBOGOLE
10.683333;1.333333;TAMBOGORE
9;2.166667;MONTSDELCASSE
7.816667;1.683333;DEKAMPE
9.833333;2.766667;DEBOU
9.35;1.416667;AKARADE
7.383333;1.983333;AHOUNRA
9.1;2.333333;WASSON
11.183333;2.133333;GBANTE
6.616667;2.516667;GBADOA
10.766667;.983333;TIANKOUEHOUM
9.366667;1.416667;TIAKPARTIA
9.366667;1.416667;CHOPARACHA
6.9;2.65;BANIGBE
10.166667;3.4;ZARA
9.866667;1.516667;PERIMETREDEREBOISEMENTDESTANEKAS
10.483333;1.266667;TANAKONGOUTANSA
10.05;1.933333;FIROU
10.633333;1.183333;FINDOUROU
6.783333;1.933333;APLANOU
8.083333;1.633333;APAKI
9.866667;3;YERE
9.016667;1.716667;ODOKOTO
8.25;1.833333;ODOEDIO
6.683333;1.633333;AGUIDAHOUE
7.466667;1.933333;AGOUSOTO
7.066667;1.9;AGOSSOUHOUI
10.65;2.966667;WARANGUI
10;2.416667;AKOULA
10.933333;.966667;MALORA
9.466667;1.516667;KAWALA
9.5;2.916667;KAWAKEROU
10.616667;1.033333;KATARI
11.016667;2.75;KPESSAGOU
9.95;1.4;PARGOUTE
9.95;1.4;KPELRHOUKPARHOUTE
10.4;1.233333;INAFONNTE
10.4;1.233333;IMAFOTE
11.533333;2.583333;BEDOUDOU
6.666667;2.2;GOVIE
10.466667;1.683333;DARO
8.083333;2.116667;YAGBO
11.416667;2.55;YAGARAFOUGUEROU
9.966667;3.283333;YA
9.2;2.85;WONKOULE
9.2;2.85;OUNKOULE
9.55;2.816667;NANO
10.45;.95;NAMOUTIAGA
10.816667;2.716667;NAHAROU
9.833333;3.133333;KERE
9.333333;1.533333;KEMETOUALIDJO
6.35;2.433333;RADEDECOTONOU
6.35;2.433333;COTONOUROADSTEAD
6.383333;2.283333;COCOCODJI
6.383333;2.283333;COCODJI
6.383333;2.283333;HALTEDEKOKOCODJI
10.25;1.233333;KOUAHA
10.25;1.233333;KOUABA
6.566667;2.7;KOTAN
10.283333;2.45;KOSSIA
8.4;2.616667;KOKORO
9.416667;2.566667;GAYAKABOU
7.383333;1.816667;LOTE
9.766667;1.35;LORI
9.85;1.65;GBOUMGBOUM
9.55;1.6;GBOUDIA
9.55;1.6;AGANGO
9.983333;2.416667;GBINIASSO
9.383333;2.5;TANKARO
6.716667;1.683333;TANGARAME
10.416667;2.833333;SAROU
9.783333;2.95;SARAKPARA
9.9;3;MOUERA
10.733333;1.333333;POMPONGOU
6.916667;1.8;PODJI
8.5;1.733333;PIRA
11.116667;2.266667;BAFILEGOU
7.116667;1.65;BADJAME
9.25;2.25;KOULO
7.05;2.5;DASSONIALLI
10.083333;2.883333;DASSAROUDAROU
7.016667;1.75;AVEGAME
9.05;2.233333;TEROU
9.05;2.233333;TERU
7.833333;1.783333;LADJOU
9.766667;2.716667;TAMOUSSIA
9.133333;1.566667;TALO
9.133333;2.783333;TAKOSSI
10.483333;1.133333;TAPOUNTI
10.416667;.8;POUGOU
10.416667;.8;PENOUAKE
9.883333;1.716667;BABIENGDA
7;1.7;AZOUKPO
6.666667;2.5;AZAOURISSE
6.666667;2.5;AZAOUIRISSE
6.95;1.866667;ZINKPE
9.816667;2.733333;SOKOUM
10.216667;2.066667;SOISSAROU
9.883333;2.683333;SOBOU
10.483333;1.55;BOROGOU
9.016667;2.5;BIBI
6.516667;2.35;ADJAGBO
9.766667;1.783333;ADANION
9.366667;2.583333;TORA
9.616667;1.366667;BEHAWALE
9.966667;2.333333;GOUSSOUNOKPAROU
9;1.65;GOURADIANI
10.8;2.033333;BARAGOUNEOU
10.316667;2.783333;BAORA
8.866667;1.8;ISSIKPA
10.316667;1.416667;IRIKOUAKOU
6.833333;2.666667;IPEGUILE
6.833333;2.666667;IPEGUITEOUME
6.833333;2.666667;IPEGNILE
9.666667;1.833333;BANGUE
11.083333;2.316667;BANDARA
7.416667;2.75;ILLARA
9.183333;1.95;MONTIGBEREKOINO
7.733333;1.733333;MOVIO
10.45;1.5;MOUNOUNBOURFA
10.4;2.55;KOKA
11.316667;2.55;FAYAGA
6.5;2.1;FANNOUHOUE
6.5;2.1;FACINAHOUE
7;1.783333;YEHOUHOUE
10.266667;1.3;TAGAYEYE
6.35;2.4;CADJEHOUN
6.966667;1.683333;BOSIKPE
6.966667;1.683333;BOZIKPE
11.35;3;IDOKIOU
9.85;2.85;ICHOGANDOU
9.866667;3.316667;BOUSSIGUI
9.366667;2.616667;WANSIROU
10.4;2.816667;GAROU
9.45;1.5;GAOUGADO
9.383333;2.633333;GANOU
10.416667;.85;GANGALE
6.633333;1.716667;LOKOSSATCHIKOME
11.55;2.983333;KOUTAFOUKOULA
9.933333;3.033333;KOUROUROU
10.416667;1.4;TANTOUGOU
11.133333;2.9;KAOURA
10.266667;1.566667;PELIMA
10.6;1.05;PEHON
7.316667;1.8;AYADAHA
7.183333;1.666667;OKY
9.2;2.166667;OKOUTAOKA
8.216667;2.35;OKO
9.8;2.966667;SIBADO
9.483333;1.783333;SESSE
9.483333;1.783333;SERSER
9.483333;1.783333;SECE
10;1.266667;BINAH
10;1.266667;KOUIYAO
10;1.266667;OUNOU
10;1.266667;AKOLE
11.9;2.916667;KOURA
10.633333;1.083333;KOUOLOHON
10.316667;1.2;KOUNIGUENNGOU
9.5;2.483333;KOUNDORA
7.216667;2.166667;HIZANKOGEDE
7.216667;2.166667;KOGEDE
7.016667;1.916667;HEDETA
9.6;1.916667;DEMSIROU
9.833333;1.383333;BATAKESSI
9.833333;1.383333;WELEKOURSI
10.633333;1.983333;BASSINI
9.733333;1.433333;TIATIAKOU
9.766667;2.55;DODOU
10.316667;1.05;KOUMANKENNTIEGOU
9.5;3.066667;BOROU
9.5;3.066667;BORO
9.383333;1.816667;BOPENANGUE
9.983333;1.366667;KOHOBE
9.983333;1.366667;KOHOBEI
8.366667;1.983333;KOFFAYE
8.083333;1.816667;KODIATCHAN
10.616667;1.366667;KOAMOGOU
9.8;1.416667;TABOUNDE
9.316667;2.516667;SUINROU
9.75;2.516667;SOUROUKOUWOROU
7.2;1.95;ALLOMAKANME
11.45;2.75;OUROUBOU
10.283333;1.666667;OURAMONON
9.5;1.416667;KPEDEKPEDE
9.266667;2.466667;KAROKOUBOU
10.35;1.383333;FAFERE
10.35;1.383333;FAFIRE
10.866667;.95;LOAKA
10.6;.883333;LIKERE
8.3;2.333333;LELE
9.95;1.55;KANKOULZOURHA
9.533333;1.533333;KANKALO
10.833333;.95;KANDJO
6.5;2.166667;TORIGARA
6.5;2.166667;TORI
9.966667;1.666667;SENAGVEOU
11.4;2.633333;SEMALABOKOU
10.55;10.6;FON
9.833333;2.916667;BEROUGANDOU
6.6;2.566667;AGONDO
7.333333;1.65;AGODOGOUE
9.216667;2.35;SIOUROU
7.15;1.716667;SINLITO
8.316667;2.7;BONBOKOU
10.85;1.4;BOLIKIANG
10.783333;1.25;BOILATINI
7.75;1.683333;KOUFFO
10.35;1.333333;KOUDENNGOU
10.616667;.9;SINGKIENI
10.216667;1.983333;SINAWAROU
9.683333;3.266667;SINAGOUROU
10;3.383333;KISSA
10.466667;1.333333;KIOTOGA
8.566667;2.4;KILIBO
9.283333;2.5;GOUNOUROU
9.983333;1.6;GOUMERA
9.816667;3.183333;OBEROUGANDO
9.783333;1.733333;NOUMENE
10.65;.866667;NOUADITARI
10.65;.866667;BOITOUHON
10.116667;1.366667;KOUGA
9.716667;1.4;BOHOUMKOARA
10.85;.966667;BOGOLORIKAPAHOUN
10.616667;1.383333;BOANNA
9.016667;1.733333;KIKELE
9.016667;1.733333;KEKELE
7.983333;1.633333;KIATA
7;2.616667;ADJAOUERE
9.566667;3.066667;DAMMBOE
9.55;3.116667;DAMMBO
7.3;1.766667;DAGUI
10.683333;2.133333;NIANIANOU
10.316667;1.466667;NIANDATE
9.583333;1.733333;AFABEUSSE
6.366667;2.133333;ADJOVICODJI
6.366667;2.133333;AOUICODJI
6.366667;2.133333;AVICONDJI
6.366667;2.133333;AVICONJI
6.7;1.666667;ADJIGA
11.066667;2.833333;TOUKO
10.966667;1.433333;TOUBILI
9.716667;1.75;TOSSAOU
9.716667;1.75;DEDERA
10.183333;2.75;DABOU
9.833333;1.45;DABLEURHA
8.4;1.65;MONTANRINE
6.633333;2.483333;GOGBO
7.816667;2.05;GOBADA
9.866667;1.7;NIAFOURHOUM
10.116667;2.516667;KORBOBO
10.733333;1.5;KONTENATANMBOU
9.9;1.55;KATABAN
9.9;1.55;FOWA
9.983333;1.383333;FOUNGOU
9.966667;1.566667;FOOPSOULRHA
6.716667;1.683333;LAGUNETOGBADJI
6.716667;1.683333;LACTOBADJI
8.016667;2.383333;WEME
8.016667;2.383333;OUEME
10.2;.666667;SAYOTA
10.2;.666667;YANONE
10.2;.666667;YAWENI
11.3;2.683333;YASSIKOGA
10.233333;1.25;KOUANGOU
9.266667;2.65;GONONGOUNE
9.266667;2.616667;GOMMBOKO
6.7;1.683333;OUEDEME
7.416667;1.916667;ANA
9.2;2.15;AMEREKPEROU
7.533333;1.7;ALOUHOUEHOUE
10.633333;2.016667;YAOUROU
10.816667;.966667;YANPOUIGA
10.066667;1.833333;YALA
11.05;2.7;GOKIROU
11.834039;3.328792;DAGADAGUE
11.588278;3.377682;ZOUKATONDI
11.59405;3.117934;WEROU
11.790113;3.159645;TOULOUATOUNDI
11.613236;3.352523;TOULOUA
11.764548;3.192634;TOROZOUGOU
11.738984;3.368685;TONKOTE
11.668887;3.346367;TONDIKINTE
11.954238;3.179599;TONDIBOUKA
11.83525;3.245459;TONDIBANDA
11.855046;3.289186;TOMBOUTOU
11.855046;3.289186;TONBOUTOU
11.905852;3.276976;TOKOIGOUNGOU
11.905852;3.276976;TOKOYGOUMBOU
11.677164;3.569532;GADITOUNGA
11.677164;3.569532;GADI
11.6796;3.472419;KOKOTOMBO
11.857972;3.418483;KOKI
11.919694;3.210915;KOTOGAMBO
11.919694;3.210915;KATAGANBO
11.672721;3.282021;KARAMBA
11.672721;3.282021;KARANBA
11.773126;3.211218;KANTORO
11.683636;3.185654;FORETCLASSEEKALASSODEGUENE
11.654944;3.23525;KABEKAKOUNGO
11.735452;3.191103;ISSENE
11.753935;3.227783;GUENEZENO
11.730858;3.22114;GUENE
11.637315;3.315905;GOUROUKPA
11.81152;3.013034;IMBATEMO
11.81152;3.013034;INBATEME
11.733434;3.376068;SOUMBEGOLO
11.875446;3.403027;SOTA
11.875446;3.403027;KAKIGOUROU
11.875446;3.403027;KAKIGORU
11.875446;3.403027;KAKIGOROU
11.680811;3.197679;SERKIFARI
11.853835;3.209099;SAKAOUANKWARATEGUI
11.853835;3.209099;SAKAWAKOUARATEGUI
11.840111;3.23362;SAKAOUAN
11.840111;3.23362;SAKAWA
11.840111;3.23362;SAKWAN
11.840111;3.23362;SAKAOUA
11.840111;3.23362;SAKOUAN
11.840111;3.23362;SAKOUANI
11.940716;3.027077;PAKO
11.86707;3.375547;OLO
11.900706;3.264851;MOLLA
11.144736;3.643915;WASAE
11.135396;3.70917;RIVERLA
11.135396;3.70917;LAGA
11.786259;3.396065;MONKASSA
11.786259;3.396065;MOKASSA
11.654211;3.420598;MODIABANGOU
11.864114;3.389668;MALANVILLE
11.864114;3.389668;MALLANVILLE
11.739387;3.323529;KOUBERI
11.770502;3.24634;KWARATEGUI
11.770502;3.24634;KOUARATEGUI
11.625244;3.435671;KATAKI
11.625244;3.435671;KOTAKI
11.585351;3.475951;KOROGOUZOU
11.644652;3.352624;KOREGOUSSOU
11.645761;3.324336;KONIA
11.907971;3.285755;GOROGUINDE
11.800434;3.476109;GAROU
11.741524;3.397074;GABOGUINDE
11.675446;3.316667;FOUMBAROU
11.742213;3.311521;FEREKIRE
11.734745;3.456458;DEITONDI
11.649899;3.148386;DAREKPOTO
11.685553;3.438378;DANIBANGO
11.976455;3.222621;BIRNILAFIA
11.976455;3.222621;BIRNITAFIA
11.976455;3.222621;RINILAFIA
11.976455;3.222621;BIRNILAFA
11.976455;3.222621;BIRNILAHA
11.939792;3.189791;BAROU
11.293625;3.011823;KIFIRIKPARA
11.244854;3.115658;KINDI
11.211824;3.16475;KOI
11.400101;3.390397;IPOUNA
11.015446;3.411599;BOUMBOUSSO
11.169694;3.239791;IRANE
11.169694;3.239791;INARA
11.40666;3.107467;KABEKAKOUNGO
12.12493;3.117583;BANIKANI
11.091607;2.999798;FORETCLASSEEDEKANDI
11.172732;3.064627;SAA
11.172732;3.064627;SA
11.219795;3.114649;POTOKO
11.656054;3.516263;NAFFA
11.707098;3.548261;MADEKAN
11.707098;3.548261;MADEKALI
11.707098;3.548261;MADEKALE
11.707098;3.548261;MADECALI
11.605752;3.496872;KWARATEGUI
11.605752;3.496872;KOIRTEGUI
11.605752;3.496872;KOIRATEGUI
11.696973;3.509603;KIBINITONDI
11.75444;3.52141;GAROUTEGUI
11.683031;3.57859;GABETOUNGA
11.74778;3.526068;DOKA
11.582457;3.508279;KASSA
11.674235;3.515961;TOUROUGOTONDI
11.616177;3.497478;SENDE
11.571611;3.50809;SADIAKPARA
11.562832;3.509099;NOMOKPARA
11.087269;3.030911;PORIA
11.166263;3.331517;OUDOGAMIWA
11.11919;3.379398;NIAMBARA
11.380407;3.158393;NANDALOUTOU
11.160915;3.092129;MOUNET
11.429398;3.172116;MONKOLE
11.429398;3.172116;MOKOLE
11.349395;3.293239;MASSANGARI
11.465557;3.387571;MAMME
11.097175;3.390313;LOUGOUGA
11.119122;3.371462;LUGU
11.119122;3.371462;LOUGOU
11.363337;3.331819;LONKO
11.266566;3.069493;LOLO
11.096246;3.315868;LIYA
11.048386;3.066869;KOUTAKROUKROU
11.23858;3.449092;GUENELAGA
11.23858;3.449092;GUINELOGA
11.686663;3.227178;ATAKIRI
11.932123;3.289791;KERGUIGURU
11.932123;3.289791;KERGIAGURU
11.932123;3.289791;ALIBORY
11.932123;3.289791;ALIBORI
11.932123;3.289791;KERGUIGOUROU
11.794349;3.179498;AKAITONDI
11.794349;3.179498;AKAITOUNDI
11.613841;3.39778;TONDIBERI
11.739589;3.105348;BATABOUROU
11.63414;3.312933;BASSOKA
11.815052;3.430709;BANIAFARI
11.633131;3.177077;BANGOUN
11.834039;3.447881;BAGOURITOUNGA
11.805247;3.380003;BODJEKALI
11.805247;3.380003;BADJEKALI
11.692331;3.169593;BOIFFO
11.629801;3.321713;BOBOSSOGATA
11.805954;3.514346;ISSAKATOUNGA
11.004339;3.534544;SABO
11.089282;3.580458;LOUSSINA
11.089711;3.547273;LETE
11.062651;3.550965;LENA
11.1092;3.500706;KANGANO
11.1092;3.500706;KANGANA
11.137571;3.597679;DIGUINSERE
11.054037;3.52415;BELEBELENA
11.15809;3.622822;BALOUMA
12.090985;3.168085;GOUROUBERI
12.090985;3.168085;GOROUBERI
12.181628;3.045528;GARBEYKWARA
12.181628;3.045528;GARBEYEKOARA
12.101963;3.105443;BOGOBOGO
11.986057;3.123529;GOROUKAMBOU
11.986057;3.123529;GOROUKANBOU
11.928893;3.262933;FORETDEGOUROUBI
11.934645;3.230205;KARGUI
11.972116;3.147056;GOROUAMOUKA
11.947275;3.01919;BOULANGA
11.953451;3.02091;BOULANOA
11.953451;3.02091;BOULANGA
11.968685;3.133737;BORAMOUFARI
12.145913;3.076923;TOYO
12.032927;3.209324;TONDIKOUARIA
12.032927;3.209324;TONDIKOURIA
12.032927;3.209324;TONDIKWARIA
11.116044;3.670757;OUARATENA
11.116044;3.670757;WARATENA
11.133176;3.543987;TAKALAFIA
11.106784;3.618884;SENA
12.160678;3.063606;KOMPATIE
12.160678;3.063606;KOMPATJE
12.160678;3.063606;KOMPANTI
12.204951;3.034285;KOMPA
12.204951;3.034285;COMPA
12.003676;3.081826;KOFOUNO
12.138424;3.103873;KWARATEGUI
12.138424;3.103873;KOARATEGUI
12.091232;3.047711;KIRINNDOUKOARA
12.091232;3.047711;KIRINDEKOARA
12.091232;3.047711;KIRINDOUKWARA
12.065453;3.185377;KARIMAN
12.065453;3.185377;KARIMAMA
12.065453;3.185377;KORIMAMA
11.320301;3.271938;CASCADESDESOSSO
11.024947;3.420037;SINWA
11.079604;3.671816;BANIZOUMBOU
11.602655;3.049543;ZONECYNEGETIQUEDEDJONA
11.323427;3.129902;BOUNZA
11.212631;3.014144;BOUNZA
11.054642;3.336966;BOUENA
11.448268;3.269307;BOTO
11.541809;3.076169;BOLA
11.522419;3.073444;BEDO
11.253734;3.44778;BANISOA
11.290699;3.491204;GBE
11.277044;3.419526;GAWANA
11.079095;3.065052;FOURGBENE
11.237066;3.045459;FOURE
11.297881;3.168584;FOUAY
11.16364;3.412732;DUNKASSA
11.517878;3.180003;DONOUBENI
11.570198;3.467474;DOGONKADE
11.544148;3.037874;DANDAGBA
11.177683;3.057585;IKEKONKOU
11.196973;3.031719;IDONANDA
11.504743;3.253734;FORETCLASSEEDEGOUNGOUN
11.557871;3.125967;GUNGUN
11.557871;3.125967;GOUNGOUN
11.124655;3.078994;GOUNGOUN
11.121409;3.099899;GOUNGOUN
11.121409;3.099899;GOUMGOUM
11.437975;3.469997;GOGUEKPARA
11.42585;3.220098;GBESSA
11.343946;3.437369;GBE
11.289077;3.54941;SEIN
11.247881;3.196872;ANKOUATIAFOUMBEOU
11.322431;3.040354;ANGARADEBOU
11.322431;3.040354;ANGARADEBURU
11.322431;3.040354;ANGARADEBU
11.032345;3.663876;WABA
11.573831;3.333535;AMBERIGOUMBI
11.573831;3.333535;ANBERIGOUMBI
11.2;3.024251;AKOKO
11.244753;3.250404;BANIKANIDONO
11.223226;3.063943;BANIKANI
11.391002;3.034039;BANBARIYENDE
11.41919;3.393744;BAKINGOULBI
11.41919;3.393744;BAKINGOURBI
11.182627;3.241625;BADIKO
11.150302;3.173948;BADA
11.513943;3.066566;ARAFAN
11.040361;3.037564;SOU
11.007915;3.243453;OBARA
11.013601;3.650636;KOLO
11.053851;3.241809;FORETCLASSEEDELASOTA
11.076976;3.061521;SOSSO
11.41703;3.106802;SONDOYENDE
11.412328;3.129398;SONDOTIOKA
12.078953;3.171355;PEUL
12.078953;3.171355;MAMASSIPEUL
12.078953;3.171355;MAMASSI
12.04446;3.133088;MAMASSI
11.335452;3.103834;TOUNA
11.355046;3.0297;TIOKA
11.350808;3.060814;TIA
11.137008;3.237273;TAI
11.482021;3.076572;TADIZOUGOU
11.437572;3.066566;SOUROU
11.095661;3.31586;SOUAKAKA
11.330492;3.24813;ZANLOA
11.093483;3.354692;ZAHONA
11.093483;3.354692;ZAHOMA
11.288875;3.020261;TUI
11.012657;3.289328;ZONDJI
11.442012;3.077279;ALFAKWARA
11.442012;3.077279;CHEFOU
11.442012;3.077279;ALFAKOUARA
11.442012;3.077279;CHEFU
11.442012;3.077279;CHEFO
11.664346;3.269694;DIEKWARE
11.664346;3.269694;DIEKOUARE
9.783333;1.516667;TINYINOUN
9.783333;1.516667;TIGNINOU
8.666667;2.733333;TINTIUNHOU
9.033333;2.15;TINTENOU
10.966667;2.816667;TINTAGROU
10.6;2.833333;TINRA
6.7;1.816667;TINOU
10.433333;2.533333;TINHOULE
10.75;1.15;KEDIAHON
9.433333;1.383333;KEDEOURI
10.416667;1.316667;FITITAMON
9.95;2.866667;TOKOU
9.716667;2.066667;TOKOTOKO
10.266667;1.733333;TOKORO
10.266667;1.733333;TOCRO
10.3;2.15;TOKE
7.05;1.833333;TOKAMEKPODJI
7.05;1.833333;TOKAME
10.616667;.883333;TOILI
7.15;1.933333;TOHOUETA
10.5;1.2;TOHONGOU
10.216667;1.716667;SEGBEKEROU
10.216667;1.716667;SIMBEKEROU
6.85;2.083333;TOFFO
6.35;1.833333;TODJANOUKO
6.35;1.833333;TONDJONKOUIN
9.25;2.65;TOBOUNKPARO
10.433333;.816667;TOBOUGUE
9.116667;2.133333;TOBO
11;2.466667;SAREDAROU
9.216667;1.766667;SARAMANGA
9.216667;1.766667;SALMANGA
9.216667;1.766667;SALANANGA
9.216667;1.766667;SALAMANGA
11;2.25;SARADOGON
10.566667;.8;SAPANTANDI
10.566667;.8;SAPANDE
9.7;1.533333;SAOVSAR
9.7;1.533333;TAMSAR
11.2;2.283333;MADOUKOKA
11.2;2.283333;MOUNDOUKOGA
11.2;2.283333;MADUKOKA
8.1;1.966667;MOUMOUTIOKE
9.083333;2.8;MOUMI
7.266667;2;MOUGNON
9.633333;1.916667;MOUEKOSSO
10.333333;1.05;MOUDO
8.2;2.6;MOTEO
8.2;2.6;MATEO
9.133333;1.783333;MOMI
7;1.75;KISSA
7.483333;1.883333;KISEKAN
9.066667;2.583333;KIRO
10.733333;2.7;KIRIGOUZIROUNBEROU
10.216667;2.883333;KIRAO
6.633333;2.416667;QUINTO
6.633333;2.416667;KINTO
9.733333;3;KINSON
7.15;1.916667;KINKPANDAN
6.916667;1.716667;KINKINHOUE
11.2;2.433333;KINKENEGOUROU
9.6;1.366667;KIMKIM
8.566667;2.6;KILIBO
10.1;2.75;KILABOROU
8.083333;2.266667;FOUTE
9.566667;1.766667;FOURAYAKA
11.533333;2.5;FOUNOGOKOKA
9.85;1.6;FOUNNOR
9.45;1.65;FOUNGBEUSSE
9.683333;1.583333;FOUNGA
10.483333;1.416667;FOTIRE
10.483333;1.416667;FOTIDE
9.65;1.816667;FORPARE
9.65;1.816667;FORPARANGA
9.95;3.366667;FONTABI
7.533333;1.9;FONKPODJI
11.416667;2.783333;FONDARO
6.8;1.783333;FONCOME
6.8;1.783333;PONCAME
9.933333;3.266667;BEROKPANE
9.866667;2.966667;BEROKPANE
9.583333;1.516667;BERHOU
9.3;2.6;BEREYADOU
11.233333;2.4;BERESSAROU
10.5;2.533333;BEREKOUANE
10.7;2.083333;BEREKOSSOU
10.366667;2.7;BEREKE
10.233333;1.983333;BERASSON
9.466667;2.033333;BEPISSI
9.916667;3.116667;SANROU
9.166667;2.266667;SANRO
9.35;2.533333;SANRO
10.65;.9;SANPEHOU
10.183333;2.766667;SANOU
11.066667;2.666667;SANMBEGOUROU
9.85;1.666667;SANKOUI
9.85;1.666667;SANKOWI
9.633333;3.15;SANIME
9.666667;1.783333;SANIFOOURH
9.533333;2.333333;FENAKOU
10.7;.933333;FEHOUN
11.716667;2.733333;FEDE
10.283333;2.6;FAYEMA
9.966667;1.633333;FAYELRO
9.383333;2.1;FAUBERA
11.533333;2.466667;FATOO
9.5;1.616667;FAROU
11.2;2.883333;FARANGUEDOU
11.2;2.883333;FARANGNEDOU
10.633333;1.65;FAORATA
10.866667;2.166667;TINGOUROU
10.516667;1.116667;SAOUNGOU
10.2;2.6;SAWERE
10.2;2.6;SAORE
10.2;2.6;SAARE
10.183333;2.35;SAODOU
9.783333;1.433333;SANYIRI
9.083333;2.483333;SANWORO
10.75;1.05;SANTIEBOUALKA
10.75;1.083333;SANTIAHON
9.866667;3.166667;SANSSANDOWERO
9.266667;2.433333;SANSON
10.383333;2.383333;DAPUEROU
6.916667;1.8;DAPLA
9.766667;1.633333;DAPIENDI
9.766667;1.633333;PABEGOU
7.1;1.95;DANTA
9.783333;3.083333;DANO
9.883333;3.05;DANMOSSI
9.816667;2.983333;DANKOUROU
10.466667;1.3;FITIPARAKOU
11.05;2.95;FIRI
9.633333;2.45;FINKOU
10.016667;3.516667;FINI
9.966667;1.866667;FINDARA
11.366667;2.55;FILOU
11.383333;2.55;FIDOUGOU
9.25;2.433333;FIAROU
11.35;2.383333;FETEGOU
10.95;2.966667;FERENA
7.35;1.816667;FENETONGON
9.75;1.433333;FENE
11.383333;2.7;ARBORDAFIA
11.383333;2.433333;ARBONGA
6.85;1.6;RAPIDESDARANDOULE
8.333333;1.833333;MONTTOBE
11.366667;2.233333;TOBAGA
10.666667;1.016667;TITONZIKAOUTA
9.8;3.016667;TISSEROU
9.55;3.116667;TIRI
10.116667;1.283333;TIPAOTI
8.1;1.9;TIOUTIOU
9.5;1.7;TIOURI
9.5;1.7;KIOURI
10.816667;1.25;TIOU
8.15;1.916667;TIONGO
7.633333;1.716667;SAN
11.25;2.25;SAMOU
10.366667;2.816667;SAMOKONEROU
10.266667;2.833333;SAMOKONAROU
9.966667;1.45;MARHOU
10.9;1.983333;MAREKPO
9.8;2.433333;MAREGOUROU
10.383333;1.816667;MAREBO
10.2;2.9;KASSANDARI
9.533333;1.466667;KASSALIA
11.083333;2.9;KASSAKO
9.6;1.966667;OMOUALI
9.6;1.966667;DOWALI
7.266667;1.95;DOVOKPA
7.2;2.35;DOVIDOVE
7.2;2.3;DOVICOGBE
11.633333;2.866667;BEDAROU
10.783333;2.983333;BEDAROU
10.633333;1.433333;TOGOUGOUANDE
6.666667;2.433333;TOGBOTA
9.833333;1.65;SANGVARSEU
8.216667;2.416667;SANGUE
9.866667;1.816667;SANGKORO
9.516667;3.15;SANDILO
10.6;.933333;SANDALA
10.583333;.95;SANDALA
8.283333;2.033333;ORIN
6.8;1.666667;KOYOHOUE
9.683333;1.85;KOYANGA
7.95;1.983333;KOVEDJI
7.083333;2.25;KOUZOUNKPA
6.466667;2.033333;COUZOUME
6.466667;2.033333;KOUZOUME
10.35;.983333;KOUYADAKE
9.283333;3.016667;KOUTOUSSEROU
11.233333;2.883333;KOUTOUBERI
10.666667;.983333;KOUTIEGA
10.933333;1.483333;KOUTIARI
10.616667;1.383333;FANABORFA
10.75;2.916667;FANA
10.316667;1.283333;FAKOUATIMANFA
9.5;2.25;REPUBLICOFDAHOMEY
9.5;2.25;REPUBLIQUEDUBENIN
9.5;2.25;REPUBLICOFBENIN
9.5;2.25;PEOPLESREPUBLICOFBENIN
9.5;2.25;DAHOME
9.5;2.25;REPUBLIQUEPOPULAIREDUBENIN
9.5;2.25;REPUBLIQUEDUDAHOMEY
10.966667;2.35;BENIAKOUGA
10.55;3.6;BENENA
9.333333;2.516667;GUINREROU
8.933333;2.583333;GUINI
8.933333;2.583333;GUINY
8.933333;2.583333;IGINI
10.45;2.616667;GUIENTA
9.35;2.783333;GUIDANPARO
11.15;2.933333;GUIDA
9.116667;1.7;GUETANAGUESERAKA
6.633333;2.45;DANKO
11.45;2.533333;DANISSANI
9.683333;1.55;DANGOUSSAR
10.85;2.65;DANGOUANOU
6.583333;2.55;DANGBO
6.633333;2.716667;DANGBAN
10.333333;1.55;DANGARE
10.75;1.666667;PROVINCEDELATACORA
10.75;1.666667;DEPARTEMENTDUNORDOUEST
10.75;1.666667;ATTAGORA
10.75;1.666667;ATACORA
10.75;1.666667;DEPARTEMENTDELATAKORA
10.75;1.666667;ATAKORA
10.75;1.666667;PROVINCEDELATAKORA
10.75;1.666667;NORTHWEST
10.75;1.666667;ATTACORA
9.716667;1.45;ATAKON
7.083333;2.133333;ZADO
9.75;1.683333;ARA
9.633333;1.933333;APOTOPOTO
9.083333;1.866667;APIOKO
9.083333;1.866667;APERE
9.5;2.35;YEREROU
11.083333;2.916667;YERE
9.9;1.65;YERAOU
9.983333;1.85;YENDARO
7.016667;1.8;YENAHOUA
9.6;1.816667;YELORA
10.65;.983333;YEKAHOU
6.966667;1.716667;YEHOUEME
9.25;2.5;YEGOUNOBOU
10.2;1.4;TAKIEKOUNTA
10.85;1.016667;TAHOUN
9.966667;1.583333;TAFENDA
7.183333;1.85;TAFAN
10.333333;1.15;TADOUOTA
10.366667;1.116667;TADOUATA
10.266667;1.333333;TADOGOYANTA
9.383333;3.1;SOUNSOU
6.866667;1.6;OUNKEMEMONOTO
6.866667;1.6;OUNKEME
6.533333;1.916667;ONHOUE
6.533333;1.916667;OUNHOUE
7.1;1.933333;OUNGBLAZO
7.95;1.983333;OUNGBEHAN
11.233333;2.416667;OUNE
11.233333;2.416667;OUNET
11.233333;2.416667;UNET
10.3;.933333;OUNDO
6.483333;1.783333;OUMPOU
6.483333;1.783333;OUMPON
10.75;1.266667;OUMPAGA
10.3;.933333;OULOU
10.833333;1.05;OULIORI
7.283333;1.983333;OUKPA
10.3;.95;OUKOUTIEROU
9.516667;2.5;OUKOURAMMO
9.533333;2.883333;OUKO
7.283333;1.966667;OUKO
7.083333;2.483333;OUINHRI
9.933333;3.033333;KOURE
9.85;2.65;KOURAMKPAROU
10.266667;1.133333;KOUPORGOU
10.35;1.1;KOUPONGOU
10.233333;1.15;KOUPOINTIEGOU
10.283333;1.133333;KOUPIGOU
10.233333;1.033333;KOUPAGOUKORONTIERE
10.216667;1.083333;KOUPAGOU
9.75;1.6;KOUNYENTOOU
10.416667;.9;KOUNTOURIAKONI
10.916667;1.1;KOUNTIAGO
10.2;1.083333;KOUNTCHOUGOU
10.416667;1.216667;KOUNSARI
10.05;1.483333;KOUNOUNKO
9.783333;1.566667;KOUNGMOLRA
10.5;2.033333;KOUNGAROU
9.25;3.133333;SAMERINEGA
9.95;1.516667;SAMBALRHOU
9.833333;1.733333;SAMADJAROU
7.333333;2;SAMADJAGON
9.5;2.983333;SALOU
9.716667;2.783333;SALAKPALOU
11.883333;2.883333;SALAKOUARA
7.283333;1.666667;SAKPETA
9.916667;1.45;SAKOURSI
9.333333;1.816667;SAKOUANA
9.85;3.233333;SAKO
8.133333;1.933333;SAKO
11.1;2.3;BANINKOULOU
11.183333;2.816667;BANINIANO
11.3;2.25;MARAGOU
10.733333;1.316667;MAPOBOULOU
10.5;.833333;MANSARE
9.75;1.5;MANSAR
10.183333;1.366667;MANOUMOU
10.183333;1.366667;MAMOUMOU
10.483333;2.783333;MANI
9.85;1.833333;MANFOUKA
10.366667;1.516667;MANAFAGA
10;1.666667;TIMOLERO
10;1.666667;MAMAZOURA
9.9;3.083333;MALOU
9.766667;1.366667;KASSADE
9.366667;2.7;KAROBOUAROU
9.2;2.633333;KARO
9.816667;1.45;MARLOUMMALERO
9.816667;1.45;KARLROUMMALERHOU
8.4;1.65;FAIMBE
10.116667;1.3;FAFA
9.916667;1.583333;FABRORA
11.166667;2.616667;FABOKOGA
7.45;2.583333;EWE
7.35;2.566667;VEDJI
7.35;2.566667;EVEJI
8.183333;1.883333;ETCHIN
11.166667;2.883333;BEBIABOU
9.333333;2.733333;BEBAKOU
9.4;3.066667;BEBA
9.216667;3.1;BEBA
9.766667;2.283333;SANEMU
9.766667;2.283333;BAWAROU
9.766667;2.283333;BANOUOROUSANEMOU
9.766667;2.283333;BANOUAROU
9.766667;2.283333;BANWORU
9.716667;2.433333;BAWAROU
7.616667;1.75;BATO
10.333333;2.1;BATINO
9.516667;1.616667;BATIABOTO
11.183333;3;BATIA
7.716667;1.966667;BATEDJI
10.366667;1.4;TIANNOKBUROUTENNGOU
9.616667;1.7;TCHANKOUEGOU
9.616667;1.7;TIANKPEKOU
10.85;.916667;TIANKONGOU
10.65;1.316667;TIANGOUBOU
10.466667;1.216667;TIANGAHONTA
10.466667;1.216667;TCHANGOATA
10.933333;1.033333;TIANGA
9.9;1.616667;TIANDARH
9.416667;2.566667;TIAN
9.816667;1.566667;TIAKEULRO
9.816667;1.566667;TCHAKELNO
9.666667;1.5;TIAKAKOULRHA
9.75;1.683333;TIAFOOURI
10.866667;1.5;TIAFARGA
10.566667;1.233333;TIAETA
9.966667;2;TIA
9.35;1.716667;TEWINGA
10.65;1.083333;TESSIBOUHON
9.5;3.116667;SABIKONO
9.6;2.983333;SABIKAWAROU
10.866667;2.933333;SABIDOGO
9.4;2.733333;SABI
8.016667;2.2;SABALAGBAN
11.483333;2.45;SAASSISSI
11.3;2.9;SAAPOUPOUTA
6.266667;1.883333;BOUCHEDUROI
6.266667;1.883333;KINGSMOUTH
6.266667;1.883333;BOUCHEDUROY
8.666667;1.633333;PREKETE
6.333333;1.833333;KPOVIDJI
6.333333;1.833333;POVIDJI
10.933333;1.083333;POURI
10.3;1.633333;POUPOURE
10.65;1.383333;POUNGAFAGA
11.666667;2.333333;POUMOU
9.533333;2.683333;MALEBOROU
9.883333;3.333333;DAMARA
9.25;3.1;DAMA
10.9;1.016667;DALABOIGA
10.733333;2.516667;DAKRO
6.55;1.9;DAKPLA
6.55;1.9;SAHOUEDAKPLA
9.683333;2.366667;DAKOUFEREKOU
10.516667;1.7;DAKOU
7.316667;1.933333;OUELI
6.483333;2.333333;OUEKEZOUME
6.483333;2.366667;OUEKEGBO
6.933333;1.75;HOUEGAME
6.933333;1.75;HOEGAME
6.933333;1.75;OUEGAME
6.483333;2.45;OUEDOGBADJI
7.35;1.966667;OUEDJOLOGON
10.35;.983333;OUDOUO
7.666667;1.65;OUDOU
7.633333;1.733333;ANFIN
7.166667;1.683333;ANFIN
9.716667;1.9;ANANINGA
6.433333;2.133333;AMOULECODJI
8.7;2.516667;AMOUDOUTOUI
8.8;2.7;AMOUDOUDOU
8.066667;1.783333;AMOU
10;1.366667;KOUTIANTIKOI
9.95;1.366667;KOUTIANTI
9.95;1.366667;KOUTIANDI
10.333333;1.183333;KOUTCHOUNCHOUNGOU
10.4;1.2;KOUTCHENETCHKOUNGOU
10.116667;1.233333;KOUTAYAKOU
10.116667;1.233333;KOUTAYAGOU
10.15;1.133333;KOUTATIEGOU
10.366667;2.733333;GUESSOUNORD
9.416667;2.733333;GUESSOU
10.333333;2.266667;GUESSEBANI
10.333333;2.266667;GUEZEBANI
11.45;2.683333;GOUGONO
9.25;2.616667;GOUFOROU
10.3;2.133333;GOUELGOULGOULA
11.616667;2.616667;GOUDIAGO
9.066667;1.733333;MONTGOUBONO
10.366667;1.8;GOUBOKO
9.866667;3.35;GOTELE
10.033333;2.916667;GOSSO
9.983333;1.85;GOSSENNE
10.9;2.916667;GOROUGANIAMIA
9.75;2.05;GOROSSO
9.266667;2.35;GOROMOSSOROU
9.35;2.566667;GOROBANI
6.966667;1.833333;CHATEHOUE
10.6;.883333;CHAMA
8.4;2.583333;CHALAGOYE
8.033333;2.5;CHABE
7.916667;1.916667;TCHABOLE
7.916667;1.916667;CHABALE
7.916667;1.916667;TEHABOLO
8.8;2.316667;CARNOVILLE
8.8;2.316667;CARNOTVILLE
9.9;1.75;BREUDJINANGA
9.9;1.75;BIRDJINANGA
9.566667;1.866667;BRAKPARI
9.483333;3.133333;BOUYEROU
10.233333;2.883333;BOUYABOUROU
10.75;.866667;BOUTOUHOUM
10.3;1.416667;BOUTAKOUNDA
9.666667;2.483333;BOUSSOUROU
10.183333;2.233333;BOUSSINKOUAROU
10.816667;1.033333;BOUROUYORE
7.5;1.85;ALOKOUTE
6.8;1.85;ALADJARAKOLA
6.4;2.666667;AKRAKE
6.783333;2.483333;AKPOTONOU
6.783333;2.483333;AKPADANOU
7.616667;1.966667;AKPINKA
9.816667;1.383333;AKPILA
8.5;1.65;AKPESSI
10.133333;1.966667;AKPEKOU
10.133333;1.966667;APEKOU
7.083333;1.966667;AKPEHODOKPO
9.55;1.6;AKPEA
6.766667;1.95;AKPAVE
9.133333;1.416667;WOLO
9.533333;1.816667;WOLKOLRA
9.766667;3.083333;WOLIGOUROU
10.016667;3.183333;WOLI
8.116667;2.566667;WOGUI
8.116667;2.566667;WOGI
8.116667;2.566667;OUOGUI
8.116667;2.566667;OUAO
8.116667;2.566667;OUAGUI
10.233333;2.116667;WODOU
10.116667;2.383333;WOBE
7.9;2.2;SOKPONTA
9.45;1.55;ODOUDATIO
8.366667;1.75;ODOTOLA
9.016667;1.9;ODOMOA
11.05;2.166667;TEOURE
9.3;2.333333;TEOU
10.1;2.883333;TEOU
10.4;1.366667;TENNTAKOU
10.566667;1.55;TENNPOBRE
10.566667;1.55;DAROTEMPOBRE
10.783333;1.65;TENNPEREFA
9.35;2.883333;TENE
10.616667;2.85;TENA
10.766667;1.416667;TEMTOUTAMOU
10.183333;2.9;TEME
10.816667;1.033333;TEMBIELEKA
9.25;2.166667;TELEBODARO
9.45;2.633333;TELE
9.816667;1.8;TEKUAROU
9.066667;2.083333;TEKE
10.75;.983333;TEFANDOU
6.466667;2.6;LAGUNEDEPORTONOVO
6.483333;2.616667;PORTONOVO
11.048889;.9725;PORGA
6.433333;2.133333;PONTANA
10.716667;1.116667;PENDISSARI
10.716667;1.116667;PONDISSARI
7.166667;1.733333;POLUDJI
11.5;2.483333;POKOUSSOUROU
6.983333;2.333333;POKINA
7.416667;1.833333;POKANME
11.35;2.466667;POGOU
11.216667;2.233333;POGOU
6.383333;2.583333;POGI
6.383333;2.583333;PODJI
9.416667;2.3;PITI
10.65;1.433333;PIPINGOU
10.683333;1.1;KPINGOU
10.683333;1.1;PINGOU
10.683333;1.1;KPINGO
7.483333;1.783333;LO
7.2;2.1;LISSESOKODOME
7.116667;2;LISSAZOUME
9.366667;1.666667;LIRO
7.35;1.866667;LINSOUPA
7.366667;1.883333;LINSA
7.366667;1.883333;KLEBOGAN
10.533333;.916667;LIKERE
10.85;1.466667;LIGOAKIANI
8.35;2.333333;LIGA
7.616667;1.766667;LEKPE
8.45;2.583333;KANBON
7.433333;1.933333;KANBLA
10.65;.833333;KANBAKA
7.983333;1.65;KANAOUN
7.983333;1.65;KANAUN
7.983333;1.65;KANAU
7.983333;1.65;KANOUN
7.483333;1.866667;KAKATEOU
10.983333;2.183333;KAKARO
6.85;1.866667;KAU
6.85;1.866667;KAII
6.85;1.866667;KAIHOUE
6.85;1.866667;KAI
10.5;1.583333;KAGAFA
8.133333;1.883333;KAFINGBE
6.7;1.633333;DONDJIZOUIN
6.7;1.633333;DJONDJIZOUME
10.983333;2.916667;DONBOUYA
6.55;1.766667;DONALONOUGBE
6.55;1.766667;DONAGBODOUGBE
10.783333;1.133333;DOMEZEKA
7.1;2.3;DOME
6.716667;2.233333;DOME
7.65;1.933333;DOLON
10.683333;.966667;DOLOLI
10.866667;2.75;BANIGOURE
6.633333;2.7;BANIBE
6.633333;2.7;BANIGBE
10.15;1.866667;BANIDAROU
9.75;2.75;BANIBA
9.75;2.933333;BANI
7.866667;1.666667;BANGO
9.916667;1.683333;SILIGA
9.916667;1.683333;BANGAFORA
10.933333;2.9;BANEROU
9.683333;2.966667;BANE
11.333333;2.5;BANE
9.7;1.55;BANDESSAR
9.083333;2;BANBOUKE
9.083333;2;BAMBOUKE
9.283333;1.766667;BANANGO
9.6;2.45;BANA
10.166667;2.083333;BANA
10.216667;2.15;DAKEREROU
6.783333;1.666667;DAHOUE
10.016667;1.85;DAHO
7.116667;1.816667;DAGOUDIKOE
10.5;2.75;DAGAROGOIPAROU
7.033333;1.933333;DADJI
8.266667;1.85;AMOKOU
8.433333;1.833333;AMOEDJOU
9.2;2.5;AMENOUROU
7.45;1.7;AMELOOUI
6.7;1.666667;AMEDENTA
9.366667;2.616667;AMAWIHON
7.483333;1.8;AMAKPA
9.533333;2.333333;ALPOURO
9.533333;2.333333;YAKOURO
9.533333;2.333333;YAKURO
9.983333;1.75;YARHOUFOOURH
10;1.616667;YARHOUDORH
10;1.616667;KOURMALI
9.983333;1.7;YARHOUBARH
10.066667;2.966667;YAREKOU
10.116667;2.783333;YARAMA
11.05;2.733333;YAODAROU
9.983333;2.916667;YANERI
10.4;1.666667;YANDALE
10.416667;.9;YANAUTE
10.4;.9;YAMMBOURGA
9.816667;1.433333;YALRHOU
9.816667;1.433333;YALROU
9.5;1.516667;YALOU
9.083333;2.583333;YAKPABE
10.183333;1.916667;YAKOU
9.983333;3.3;YAKOKPARO
9.983333;3.3;YAKAKPARO
9.55;3.05;YAKIBOURAROU
10;2.616667;YAKASSOUGA
7.416667;1.766667;SOTONE
7.416667;1.683333;SOTO
6.466667;2.416667;SOSHANHUI
6.466667;2.416667;SOTCHAHOUE
6.466667;2.416667;SOCHANHUI
6.466667;2.416667;SOTCHANHOUE
9.733333;2.6;SOSSO
10.55;1.133333;ONKOUEWATA
9.516667;1.933333;ONKLOU
9.5;1.983333;ONKLOU
8.016667;2.6;ONBIDJA
8.233333;2.033333;OMODOYA
8.033333;2.716667;OMODO
8.916667;2.366667;OMIFOUNFOU
8.1;1.8;OMIFON
8.666667;2.683333;OGBE
8.533333;2.75;OGBAGBA
7.35;2.65;OFIA
8.683333;2.433333;OFI
9.533333;1.5;KOUMPENE
10.766667;1.066667;KOUMPEHOUM
10.133333;.366667;KAMAGA
10.133333;.366667;KUMONGU
10.133333;.366667;KUMAGA
10.133333;.366667;KOUMANGO
10.133333;.366667;KOUMAGO
10.133333;.366667;KOUMAGA
10.133333;.366667;KOUMOGOU
10.133333;.366667;KOUNA
10.133333;.366667;KUMAGO
10.133333;.366667;KOUMONGOU
9.316667;2.583333;KOUMEROU
10.383333;1.2;KOUMATIEGOU
10.216667;2.5;KOUMASSO
10.283333;1.233333;KOUMAGOU
10.283333;1.233333;KOUMAGO
10.15;1.116667;KOUMAGOU
9.216667;2.25;KOUMADEROU
9.916667;1.716667;KOULOUWO
9.366667;1.433333;KOULOUMIZI
9.366667;1.433333;KOLIMISI
7.033333;2.583333;KOULOTCHO
6.9;1.883333;KOULIKAME
8.766667;2.233333;KOULEEKOU
10.1;2.95;NIOKOLA
8.2;1.816667;NIOKA
11.616667;2.583333;NINPOUNI
10.45;1.783333;NINMBERE
10.633333;2.85;NINIANEGOUROU
11.366667;2.466667;NIMMBERE
9.4;2.583333;NIKIKPEROU
9.783333;1.55;YAKAMARO
10.55;1.166667;YAHOUNGOU
9.783333;2.883333;KOROU
10.583333;1.333333;KORONGKORE
11.033333;3.65;WINTE
10.7;2.833333;OUESSENE
10.7;2.833333;WINSENE
10.7;2.833333;GUESSENE
10.7;2.833333;OUESSEME
10.7;2.833333;WESSEME
9.383333;2.283333;WEWE
9.766667;3.133333;SORIA
9.666667;2.9;SORI
7.416667;1.966667;SOPATANGAGON
9.866667;1.4;SOOUWENIANGO
9.983333;3.3;SONWORE
9.716667;2.183333;SONTARO
9.883333;3.183333;SONRI
9.983333;1.483333;GBERNIKI
9.4;2.383333;GBEREKOUBOU
8.833333;2.216667;ODOLA
8.833333;2.216667;RIVERODWO
9.383333;1.45;ODOLA
8.85;2.316667;ODOKPOKPO
8.133333;1.9;ODOKOTO
9.416667;1.5;ODOKORIKO
9.366667;1.466667;ODOKOLAYA
9.016667;1.733333;ODOIGBO
8.266667;2.716667;ODOHI
9.366667;1.433333;ODOGE
8.066667;1.816667;ODOAMOU
9.066667;1.916667;ODOALSANDA
8.766667;2.6;ODOAKABA
8.233333;1.75;ODOAGBON
8.2;1.9;ODO
8.066667;1.7;ODIOU
7.483333;2.433333;AGUIGADJI
7.483333;2.433333;AGUIGDIJI
7.483333;2.433333;AGUIGAJI
6.75;2.7;AGUIDINORD
6.75;2.7;AGUIDI
9.566667;1.533333;AGUEOUDA
7.966667;1.866667;AGRAMIDJODJI
7.7;1.783333;DJINA
7.2;2.033333;DJIME
7.033333;1.75;DJIMAKOE
7.033333;1.866667;DJIHAMI
9.433333;1.883333;DJIGORO
6.833333;2.383333;DJIGBE
6.716667;2;DJIDJOUZOU
7.066667;1.733333;DJIBIME
10;1.65;DJESSEKOUSINNGREU
7.383333;1.95;DJESI
7.383333;1.95;DJESSI
7.716667;1.783333;DJEMA
7.6;1.783333;DJEGEKPODJI
8.283333;2.383333;DJEGBEVIDOUTE
6.5;2.65;DJEGANDAHO
7.316667;1.916667;DJEBATIN
7.316667;1.916667;DJEKBATIN
9.916667;1.516667;DJANTIROU
9.8;1.683333;DJAKPENGOU
9.8;1.683333;DIAPENGOU
6.5;2.666667;BAHICA
9.05;2.183333;BAGUEDO
7.8;1.633333;BAGUE
11.333333;2.566667;BAGORO
7.216667;1.866667;BAGBORHOE
9.283333;1.466667;BAGAYE
7.216667;1.883333;BAFFAN
10.9;2.733333;BADU
10.9;2.733333;BADOU
9.883333;1.9;BADORE
7.95;1.983333;BADJI
11.516667;2.6;BADEROU
9.366667;2.533333;TANKAROGA
9.716667;2.416667;TANKA
10.25;1.45;TANIAPETA
10.25;1.45;TAGNAPETA
8.066667;2.483333;MONTTANI
9.733333;3.033333;KPANE
9.733333;3.033333;PAKPANE
9.416667;1.433333;KPOUINDI
11.633333;2.633333;KPONTA
7.45;2.75;ILLIKIMON
10.933333;1.016667;TCHANKBOARRA
6.95;1.733333;TCHANHOUE
7.9;1.75;TCHAMBO
8.883333;2.566667;TCHALLAH
9.683333;1.383333;TCHALADE
9.683333;1.383333;WALADE
6.383333;2.166667;TCHIAPECODJI
6.383333;2.166667;TCHAKPECONDJI
10.15;1.483333;TAWANMPOUTA
10.15;1.483333;TAOUAMPOUTA
10.316667;1.083333;TATOUNTIETA
10.366667;.933333;TATOUGOU
10.45;1.45;TATANTA
11.016667;2.216667;TATA
9.666667;3.233333;TASSO
9.983333;1.55;TASSIGOUROU
10.183333;2.766667;TASSI
9.983333;2.866667;TASSENEGOUROU
10.3;2.866667;TASSE
10.8;.95;TASSAHOUNPOUROUPORGA
10.4;1.516667;TARISSARI
10.783333;1.483333;KOUENNTI
10.066667;1.066667;KOUENISSO
10.233333;1.466667;KOUEKANI
10.1;1.183333;NIATARI
10.1;1.183333;KOUDOUOGOU
10.183333;1.2;KOUDOUOGO
10.9;1.166667;KOUDOU
10.283333;1.216667;KOUDENNDONGOU
10.116667;1.15;KOUDANMANGOU
9.2;2.566667;KOUBOU
10.05;1.55;KOUBORO
9.5;1.533333;KOUBLI
10.783333;.9;KOUBIKONDOTEFANGA
9.9;1.383333;KOUBENEBENE
10.633333;.933333;KOUBEMORHOU
10.466667;1.633333;COUBA
10.466667;1.633333;KOUBA
9.033333;2.583333;GOKANA
9.733333;1.983333;AKEKEROU
9.733333;1.983333;GOGOSSI
9.683333;1.933333;GOGOROFIYENGA
8.283333;2.65;GOGORO
11;2.916667;GOGAYEMIA
6.366667;2.35;GODOMEY
7.033333;1.783333;GODOHOU
9.483333;3.15;GOBIKONOUKPARO
9.233333;2.5;GOBIGOUROU
6.983333;1.683333;GNONFIHOUE
10.866667;1.183333;BOUROU
10.466667;2.083333;BOUROGOUROU
10.366667;2.45;BOURO
10.633333;1.033333;BOURLATALI
10.4;2.416667;BOULASSARO
11.866667;2.866667;BOUKPEROU
10.966667;2.216667;BOUKOUBROU
8.8;1.683333;AKPASSA
8.616667;2.566667;AKPAO
6.55;2.566667;AKPAME
9.083333;1.85;AKOYA
8.583333;1.7;AKOUTAOSSE
8.1;1.683333;AKOUMOKOUMO
9.5;1.383333;AKONOKORE
6.5;1.766667;AKONANA
6.516667;2.6;AKONABOU
6.516667;2.6;AKONOBOUE
6.4;1.916667;AKLO
6.4;1.916667;AKLOCOME
9.35;2.766667;WEVAGA
9.366667;1.7;WETCHETCHE
9.366667;1.7;WETIETIE
9.766667;1.616667;DEMPAGETIENE
9.766667;1.616667;WETENGA
9.316667;2.35;WESSI
9.983333;2.683333;WEROU
6.9;1.683333;SOKOUHOUE
7.683333;2.25;SOKLOGBO
9.2;3.05;SOKI
9.333333;1.416667;MONTSOKBARO
10.066667;2.966667;NIKETERE
11.35;2.55;NIIRIGOU
10.716667;.95;NIHOME
10.316667;1.816667;NIENKOUDAROU
11.466667;2.666667;NIENGUENI
10.783333;2.85;NIENENE
10.416667;2.016667;NIEMASSON
10.55;1.283333;NIELIBOUNDE
11.383333;2.5;NIEKOUBANTA
10.933333;.916667;NIEHON
7.466667;1.85;AGBLADJE
7.433333;1.966667;AGBETOGAGON
7.4;1.983333;AGBENGNISOE
7.816667;1.7;AGBATOU
7.8;1.716667;AGBATON
6.383333;2.433333;AGBATO
9.95;1.766667;AGBASSON
10.116667;2.9;KORONA
9.633333;1.8;KOROLONGZI
9.633333;1.8;KOROLONGOUZIR
9.483333;2;KOROBANI
9.15;2.416667;KORO
8.9;2.566667;KORO
9.933333;2.5;KORINTISSOU
9.783333;3.016667;KORINEWOROU
9.95;2.5;KORI
10.083333;1.55;KORE
6.45;1.8;GNITO
7.35;1.883333;GLOGOUGON
7.566667;1.883333;GLODJOGON
7.133333;1.716667;GLOBOUI
7.966667;2.3;GLAZOUE
7.966667;2.3;GLASOUE
11.15;2.383333;BIONGA
11.15;2.383333;BOUINKOUROU
9.4;3.066667;BOUI
9;2.533333;BOUHIHAKAO
8.933333;2.55;BOUHIAKAROU
9.916667;2.533333;BOUETAKAROU
10.216667;1.75;BOUESSINAKOUROU
9.933333;3.016667;BOUEROU
9.05;2.4;AGRAMAROU
9.2;2.233333;AGRABANSOU
6.583333;2.583333;AGPRO
7.383333;1.983333;AGOUNOGON
7.566667;1.7;AGUNA
7.566667;1.7;AGOUNA
7.566667;1.7;AGOUNAGAGA
6.383333;1.983333;AGOUKAME
7.133333;1.75;AGOUGAN
6.233333;1.683333;ADJIGO
6.233333;1.683333;AGWEH
6.233333;1.683333;AGUE
6.233333;1.683333;AGOUE
6.233333;1.683333;AJIGO
6.233333;1.683333;AGWE
8.25;1.75;FORETCLASSEEDAGOUA
7.1;1.65;AGOSSAKOE
7.066667;1.883333;AGOREADJI
6.866667;2.516667;AGONVY
6.866667;2.516667;AGONVI
7.283333;1.916667;AGONME
7;2.016667;AGONLIN
10.633333;1.383333;WARATAMOU
10.666667;2.583333;WARAGUIENTCHEGUERA
10.566667;1.833333;WARA
10.166667;3.383333;WARA
9.933333;2.816667;WAOUDO
10.333333;1.233333;WANTIEGOU
10.166667;2.733333;WANRAROU
9.766667;1.533333;WANKROA
10.9;.983333;WANGOUHOUN
10.933333;1.516667;WANGOU
9.533333;2.983333;WANDOU
9.7;2.933333;WAN
9.85;1.75;WAMOLRHA
9.85;1.75;WAMOREGA
9.583333;1.8;WALROU
9.583333;1.8;OULAOUGOU
9.733333;2.7;WAKPAROU
10.2;1.666667;WAKOUKOUKA
9.783333;1.65;KPARSI
11.016667;2.416667;KPARE
6.633333;2.566667;ZOUNTO
6.633333;2.566667;ZOUNTA
10.083333;1.316667;TAPOUTA
10.083333;1.316667;TAPOUNTA
10.033333;1.466667;TAPOUNDOUKOUNTA
6.966667;2.316667;HON
7.183333;2.633333;HOLLIBOLO
9.616667;1.65;TANGSARA
9.616667;1.65;TANDSARA
10.3;1.183333;TANGOUOTA
6.6;2.3;TANGBO
9.833333;1.616667;TANGBAMRHA
9.833333;1.616667;TANGBAMORA
9.283333;1.966667;TANGAYE
10.333333;2.766667;PEDAROU
10.3;2.7;PEDAROU
6.45;1.933333;HOUEYOGBE
6.45;1.933333;HOUEYOGBEPEDAH
6.45;1.933333;PEDAHOUEYOGBE
10.583333;.933333;PAZEKA
10.2;2.766667;PASSIKINE
10.866667;.866667;DAYEROU
7.166667;1.95;DAVOUGON
6.916667;2.316667;KPOMOU
6.916667;2.316667;KPOME
7.1;1.966667;KPODJI
6.833333;1.7;KPODAHA
6.816667;1.633333;KPOBA
6.816667;1.633333;KPOTA
6.816667;1.633333;POBA
10.1;1.316667;DIBONI
10.1;1.316667;KPO
7.366667;1.733333;KPEVIDODOUI
6.85;1.8;KPEVI
7.2;1.916667;KPETEKPA
10.166667;1.983333;KPESSOUROU
10.283333;1.8;KPESSINHE
10.45;1.3;KPESSILAKA
10.266667;1.683333;KPESSI
10.266667;1.683333;PESSI
10.55;1.616667;KPESSENNTA
7.083333;2.75;ILLEMON
8.8;2.266667;ILE
9.5;1.416667;IKPELENION
9.5;1.416667;EKPELEGNOU
9.666667;2.8;IKOU
9.266667;1.816667;IKETI
6.633333;2.733333;IGOLO
9.083333;1.9;IGBOMAKORO
9.083333;1.9;IBOUMAKORO
7.05;2.716667;IGANA
8.866667;2.016667;IFEMI
8.15;1.9;IFATIO
8.433333;2.583333;IDOUYA
11.25;3;IDOKOFO
7.466667;2.716667;IDIGNY
7.466667;2.716667;IDANYIN
7.466667;2.716667;IDAHIN
7.466667;2.716667;IDAHIM
10.3;1.233333;IDAGOUTA
9.766667;1.816667;DIDINGA
10.05;1.25;DIBONI
10.533333;1.033333;DIBOIRI
9.616667;1.683333;DIAPESSKOURA
7.216667;1.833333;DIAGBETO
10.966667;1.516667;DIABOTO
9.666667;1.683333;DEWA
10.883333;1.183333;DETJOUNGA
11.333333;2.35;DEROUBANOU
11.3;2.4;DEROU
9.683333;3.083333;DEREKOKO
10.366667;2.55;DERE
10.05;1.983333;DERE
7.516667;1.983333;BADAGBA
7.3;1.966667;BACHOGON
6.8;1.766667;BACANKOME
6.616667;2.533333;ZOUNKE
6.616667;2.533333;ZOUNGUE
6.333333;2.083333;ZUMBOJI
6.333333;2.083333;ZOUNGBODJI
6.333333;2.083333;ZOUMBODJI
7.05;2;SINHOUEHOUNTO
11.166667;2.883333;SINEKPAROU
11.416667;2.766667;SINEKOGA
11.383333;2.9;SINDE
11.116667;2.783333;SINAGURU
11.116667;2.783333;SINAGOUROU
11.116667;2.783333;SINANAGOUROU
11.116667;2.783333;SINAWONGOUROU
11.2;2.35;SINAWANONKOULOU
10.016667;3.183333;SINASSESSOU
10.683333;2.75;SINASSENOU
10.3;2.233333;NIANA
9.783333;1.75;NIAMOLRHOU
9.733333;2.416667;NIAMADEROU
9.583333;1.4;AGNOULAKO
9.583333;1.4;NIALODE
9.033333;1.383333;NIALA
9.283333;1.45;NIALA
10.783333;.866667;NIAKOHOUM
9.283333;3.016667;NIAKITARI
9.283333;1.5;NGIORO
9.65;2.916667;WERE
9.883333;2.983333;WERAGANDO
9.166667;2.633333;WERA
9.866667;3.016667;WERA
10.7;2.816667;WENOU
9.566667;1.783333;WENGNAM
10.383333;.883333;KONANBOUGOU
10.066667;1.266667;KON
11.116667;2.1;GBENISSA
10.283333;2.9;GBEKOU
6.416667;1.9;GBEHOUE
6.333333;2.016667;GBEHONOU
7.333333;2.316667;SOHOVE
7.333333;2.316667;SOHOUE
11.1;2.3;SOGOROU
8.016667;1.85;SOEDJI
11.366667;2.416667;SOBOROGOU
8.933333;2.3;MONTSSOBIRIGBEROU
9.75;2.4;SOBI
9.966667;2.733333;SOAWODOU
6.5;2.4;SOAWA
6.5;2.4;SOAVA
6.5;2.4;SO
6.5;2.4;SOAVO
10.65;.883333;BOROKOINGA
10.616667;1.583333;BOROIENDI
6.933333;1.783333;BORODJI
9.966667;1.983333;BORO
10.933333;2.833333;BORO
9.966667;1.8;BORO
9.55;2.55;BORNINKOU
6.616667;2.45;AGBANTA
10.2;1.733333;AGBANSON
7.85;1.9;AGBANOU
7.1;1.683333;AGBANATE
7.433333;1.966667;AGBAMEGON
9.683333;1.433333;AGBALIDE
7.566667;2.033333;AGBADO
6.4;1.933333;AGATOGBA
6.4;1.933333;AGATAGBO
6.4;1.933333;AGATOGBO
6.55;2.366667;AGASSAGODOMEY
6.55;2.366667;GAZAGODOMEY
6.55;2.366667;GAZAGODOME
6.55;2.366667;GAZAGODAMI
10.916667;1.1;TSIZENNKOUGA
6.933333;1.65;TSIGLIHOUE
10.383333;.95;TRAPIENGOU
6.833333;1.816667;TOVIKLIN
6.833333;1.816667;TOUIKLIN
10.7;1.166667;TOUSSALI
9.4;1.433333;TOUROUMINI
9.6;1.566667;TOUOTE
9.8;3.233333;TOUNTAROUGANDO
9.833333;3.25;TOUNTAROU
9.766667;1.75;TOUNOUNGRIFOOURHA
7.033333;1.733333;TOUNOUHOUE
9.966667;1.966667;TOUNKONPORORO
6.6;2.533333;TOUNGUE
10.716667;1.05;SERI
9.666667;1.616667;SERHOLRHOU
9.666667;1.55;SERALRA
9.666667;1.55;SERHALRHA
9.916667;3.033333;SEREKALI
10.733333;2.983333;SEREBOU
10.816667;2.566667;SEREBABANOU
10.4;1.766667;SERA
10.4;1.766667;CERA
10.666667;1.233333;SEPOUNGA
7.15;1.966667;NGBINDO
9.7;1.65;NEUMBAKOULRA
9.666667;1.6;NOBRANDE
9.666667;1.6;NEUBRANDE
10.666667;1.316667;NANEBOU
10.666667;1.316667;NENEBOU
7.316667;2.35;NDOKPO
10.533333;1.116667;NAHONTA
10.533333;1.116667;NDAHONTA
6.5;1.783333;KONOUHOUE
6.5;1.783333;KOMOUHOUE
11.283333;2.416667;KOMON
10.3;1;KOMINDI
9.433333;2.65;KOMI
7.4;1.95;KOME
10;1.65;KOLRHA
8.15;2.033333;KOLOUBOU
10.85;2.716667;KOLOMI
7.1;1.7;KOLOGBE
9.733333;1.633333;KOLOGBARA
9.616667;1.5;KOLOBANDE
9.4;1.433333;KOLIMISI
10.8;2.85;KOKOUBOUEBAKOU
9.283333;2.4;KOKOUBOU
9.733333;2.65;KOKOU
9.966667;2.666667;KOKOSIKA
10.066667;2.016667;GAROU
9.65;1.483333;GAOUDYIRA
9.833333;3.033333;GANSON
10.316667;2.883333;GANROU
11.25;2.416667;GANO
10.483333;1.683333;GAMBOUDAROU
10.483333;1.683333;GANMBODANROU
11.083333;2.85;GANMBANE
11.133333;2.283333;GANINKOULOU
9.866667;3.316667;GANGOURO
9.85;1.85;GANGAMOU
10.65;2.966667;KPAPLAKOROU
7.8;1.8;KPAPAKRI
9.466667;1.55;KPAOYA
9.533333;1.683333;KPAORHA
9.533333;1.683333;PAOUGA
9.466667;1.583333;KPAO
9.716667;3.066667;KPANEBOUYEROU
9.316667;1.816667;KPANA
9.316667;1.816667;KOUBONBONGO
8.283333;1.9;KPALOTCHO
9.866667;1.683333;KPALIFOOURH
9.633333;1.816667;KPALI
9.783333;1.5;KPALANGPARHOU
9.6;1.666667;KPALAKERIN
9.283333;2.5;KPAKPANE
9.983333;1.6;KPAKOUMARE
9.466667;1.533333;KPAKO
8.066667;2.266667;OKO
8.066667;2.266667;HOKO
8.066667;2.266667;OKOO
7.15;1.95;HODJA
6.766667;2.166667;HINVI
6.766667;2.166667;HENVI
6.3;1.9;HIADON
6.3;1.9;HINDON
6.233333;1.633333;HILAKONDJI
6.233333;1.633333;HILIAKONDJI
6.233333;1.633333;HILACONDJI
6.233333;1.633333;HILACONDJI
6.416667;2.25;HEVIE
6.283333;1.85;HEVE
7.016667;1.733333;HEDJANAHOVA
6.833333;1.683333;HEDEHOUE
7.116667;1.966667;HAOULA
6.516667;1.816667;HAINDE
6.516667;1.816667;HANDE
10;2.416667;DEOUSSO
7.35;1.766667;DEOUIGON
7.133333;1.683333;DEMOUKOE
10.433333;.8;DATORIGANGANBA
10.333333;1.016667;DATANOUATA
10.216667;2.05;DASSO
7.25;2.016667;AVOCANZOU
8.35;2.533333;AVITO
6.933333;1.716667;AVEGODOUI
6.95;1.65;AVEGODO
6.95;1.65;AVEGADO
7.066667;1.95;AVALLI
6.65;2.05;AVAKPAMOTCHOKPEVI
6.65;2.05;AVAKPA
6.516667;2.533333;AVABODJI
6.966667;2.716667;AUDUNTUN
6.966667;2.716667;AUDUNTINI
8.466667;2.466667;ATTATA
7.533333;1.8;ZOUNGAHOU
9.166667;2.25;SINAOU
10.1;1.283333;SINAISSIRE
10.1;1.283333;SINAICIRE
9.816667;3.133333;SINAGOUROUGANDO
9;2.6;SINAGOUROU
10.15;2.133333;SINAGHERE
11.35;2.95;SINABANDOU
7.1;1.7;SIMLITA
10.316667;1.95;SIMIA
9.85;2.366667;SIKOROUNKOUKA
7.516667;1.9;BOHOUE
6.666667;1.85;BOHIME
6.666667;1.85;BOLIME
7.2;2.066667;BOHICON
7.483333;1.9;BOHE
7.266667;1.983333;BOHE
7.866667;1.8;BOGUIDJI
10.883333;.966667;BOGOLORIKAPAHOUN
8.383333;1.633333;BOGOLO
9.666667;1.6;KORA
10.616667;1.116667;KORA
10;1.966667;KOOUI
10.416667;.833333;KONYIKO
10.616667;1.266667;KONTRE
9.15;2.6;KONTOUBAROU
10.766667;.9;KONPANI
7.35;1.8;ADJEHONGON
7.466667;1.916667;ADJAZON
6.533333;2.616667;ADJARRA
6.9;1.6;RAPIDESDADJARALA
8.4;1.9;ADJANTE
7.333333;1.833333;ADJAMINGON
7.366667;1.75;ADJAKIDE
7.066667;1.783333;ADJAHOME
7.05;1.8;ADJAHOME
9.133333;2.383333;GBEGOUROU
10.083333;2.866667;GBEDIRE
9.616667;1.666667;BOURA
9.616667;1.666667;BORHA
10.4;1.633333;BOREYENDE
10.4;1.633333;BOROYENDE
10.383333;1.683333;BORE
6.583333;1.983333;BOPA
9.7;1.416667;BOOUMOO
6.9;2.45;BANOU
6.9;2.45;BONOU
11.366667;2.533333;GAMAROU
10.65;2.8;GAMAROU
10.166667;2.65;GOMARE
10.166667;2.65;GAMARE
10.983333;1.983333;GALINI
8.1;1.95;GALATA
6.416667;2.133333;GAKPE
6.416667;2.133333;GANKPE
9.983333;2.6;GAKOURA
7.133333;1.65;GAKOUE
9.966667;2.516667;GAKAKARA
9.666667;1.65;GAHO
9.883333;2.783333;GAGOULOU
9.383333;2.6;GAGBEBOU
11.3;2.966667;GABOUA
9.266667;2.716667;BOA
7.483333;1.966667;BLAKA
9.533333;1.7;BITCHEKA
9.783333;1.4;BIDAODE
9.283333;3.15;BIBIKPARO
10.8;2.7;BIANGOUROU
10.383333;1.983333;BIANGBEBOU
